id,admin0,admin1,admin2,admin3,level,admin,iso2,iso1_3n,iso2_uid,iso1_3c,iso1_2c,nameid,centroid_longitude,centroid_latitude
ECA0101,Ecuador,Azuay,Cuenca,,canton,2,A,218,EC-A,ECU,EC,"Cuenca, Azuay, Ecuador",-79.219986,-2.8614755
ECA0102,Ecuador,Azuay,Giron,,canton,2,A,218,EC-A,ECU,EC,"Giron, Azuay, Ecuador",-79.15934,-3.1794868
ECA0103,Ecuador,Azuay,Gualaceo,,canton,2,A,218,EC-A,ECU,EC,"Gualaceo, Azuay, Ecuador",-78.844933,-2.9178488
ECA0104,Ecuador,Azuay,Nabon,,canton,2,A,218,EC-A,ECU,EC,"Nabon, Azuay, Ecuador",-79.118881,-3.3297832
ECA0105,Ecuador,Azuay,Paute,,canton,2,A,218,EC-A,ECU,EC,"Paute, Azuay, Ecuador",-78.681664,-2.7108266
ECA0106,Ecuador,Azuay,Pucara,,canton,2,A,218,EC-A,ECU,EC,"Pucara, Azuay, Ecuador",-79.527496,-3.1924272
ECA0107,Ecuador,Azuay,San Fernando,,canton,2,A,218,EC-A,ECU,EC,"San Fernando, Azuay, Ecuador",-79.268028,-3.1327119
ECA0108,Ecuador,Azuay,Santa Isabel,,canton,2,A,218,EC-A,ECU,EC,"Santa Isabel, Azuay, Ecuador",-79.36348,-3.2023385
ECA0109,Ecuador,Azuay,Sigsig,,canton,2,A,218,EC-A,ECU,EC,"Sigsig, Azuay, Ecuador",-78.853905,-3.1298509
ECA0110,Ecuador,Azuay,Ona,,canton,2,A,218,EC-A,ECU,EC,"Ona, Azuay, Ecuador",-79.130623,-3.489181
ECA0111,Ecuador,Azuay,Chordeleg,,canton,2,A,218,EC-A,ECU,EC,"Chordeleg, Azuay, Ecuador",-78.733528,-2.9957097
ECA0112,Ecuador,Azuay,El Pan,,canton,2,A,218,EC-A,ECU,EC,"El Pan, Azuay, Ecuador",-78.654686,-2.8577356
ECA0113,Ecuador,Azuay,Sevilla De Oro,,canton,2,A,218,EC-A,ECU,EC,"Sevilla De Oro, Azuay, Ecuador",-78.541954,-2.6595352
ECA0114,Ecuador,Azuay,Guachapala,,canton,2,A,218,EC-A,ECU,EC,"Guachapala, Azuay, Ecuador",-78.696541,-2.7831941
ECA0115,Ecuador,Azuay,Camilo Ponce Enriquez,,canton,2,A,218,EC-A,ECU,EC,"Camilo Ponce Enriquez, Azuay, Ecuador",-79.598633,-2.9778442
ECB0201,Ecuador,Bolivar,Guaranda,,canton,2,B,218,EC-B,ECU,EC,"Guaranda, Bolivar, Ecuador",-79.0495,-1.4146204
ECB0202,Ecuador,Bolivar,Chillanes,,canton,2,B,218,EC-B,ECU,EC,"Chillanes, Bolivar, Ecuador",-79.121117,-2.0115767
ECB0203,Ecuador,Bolivar,Chimbo,,canton,2,B,218,EC-B,ECU,EC,"Chimbo, Bolivar, Ecuador",-79.144699,-1.6732477
ECB0204,Ecuador,Bolivar,Echeandia,,canton,2,B,218,EC-B,ECU,EC,"Echeandia, Bolivar, Ecuador",-79.262695,-1.4554911
ECB0205,Ecuador,Bolivar,San Miguel,,canton,2,B,218,EC-B,ECU,EC,"San Miguel, Bolivar, Ecuador",-79.103775,-1.7944587
ECB0206,Ecuador,Bolivar,Caluma,,canton,2,B,218,EC-B,ECU,EC,"Caluma, Bolivar, Ecuador",-79.218819,-1.6081605
ECB0207,Ecuador,Bolivar,Las Naves,,canton,2,B,218,EC-B,ECU,EC,"Las Naves, Bolivar, Ecuador",-79.292442,-1.2868892
ECC0401,Ecuador,Carchi,Tulcan,,canton,2,C,218,EC-C,ECU,EC,"Tulcan, Carchi, Ecuador",-78.040329,.82122344
ECC0402,Ecuador,Carchi,Bolivar,,canton,2,C,218,EC-C,ECU,EC,"Bolivar, Carchi, Ecuador",-77.934586,.49750078
ECC0403,Ecuador,Carchi,Espejo,,canton,2,C,218,EC-C,ECU,EC,"Espejo, Carchi, Ecuador",-77.964737,.66375309
ECC0404,Ecuador,Carchi,Mira,,canton,2,C,218,EC-C,ECU,EC,"Mira, Carchi, Ecuador",-78.104797,.59148771
ECC0405,Ecuador,Carchi,Montufar,,canton,2,C,218,EC-C,ECU,EC,"Montufar, Carchi, Ecuador",-77.815262,.5671227
ECC0406,Ecuador,Carchi,San Pedro De Huaca,,canton,2,C,218,EC-C,ECU,EC,"San Pedro De Huaca, Carchi, Ecuador",-77.714386,.6127947
ECD2201,Ecuador,Orellana,Orellana,,canton,2,D,218,EC-D,ECU,EC,"Orellana, Orellana, Ecuador",-76.772583,-.65433311
ECD2202,Ecuador,Orellana,Aguarico,,canton,2,D,218,EC-D,ECU,EC,"Aguarico, Orellana, Ecuador",-75.882187,-.94966674
ECD2203,Ecuador,Orellana,La Joya De Los Sachas,,canton,2,D,218,EC-D,ECU,EC,"La Joya De Los Sachas, Orellana, Ecuador",-76.891487,-.28008997
ECD2204,Ecuador,Orellana,Loreto,,canton,2,D,218,EC-D,ECU,EC,"Loreto, Orellana, Ecuador",-77.352516,-.64354354
ECE0801,Ecuador,Esmeraldas,Esmeraldas,,canton,2,E,218,EC-E,ECU,EC,"Esmeraldas, Esmeraldas, Ecuador",-79.625763,.7949791
ECE0802,Ecuador,Esmeraldas,Eloy Alfaro,,canton,2,E,218,EC-E,ECU,EC,"Eloy Alfaro, Esmeraldas, Ecuador",-78.950546,.73019409
ECE0803,Ecuador,Esmeraldas,Muisne,,canton,2,E,218,EC-E,ECU,EC,"Muisne, Esmeraldas, Ecuador",-79.920853,.47957048
ECE0804,Ecuador,Esmeraldas,Quininde,,canton,2,E,218,EC-E,ECU,EC,"Quininde, Esmeraldas, Ecuador",-79.438927,.36206943
ECE0805,Ecuador,Esmeraldas,San Lorenzo,,canton,2,E,218,EC-E,ECU,EC,"San Lorenzo, Esmeraldas, Ecuador",-78.676094,.98699659
ECE0806,Ecuador,Esmeraldas,Atacames,,canton,2,E,218,EC-E,ECU,EC,"Atacames, Esmeraldas, Ecuador",-79.85939,.78804559
ECE0807,Ecuador,Esmeraldas,Rioverde,,canton,2,E,218,EC-E,ECU,EC,"Rioverde, Esmeraldas, Ecuador",-79.340591,.85273939
ECF0301,Ecuador,Canar,Azogues,,canton,2,F,218,EC-F,ECU,EC,"Azogues, Canar, Ecuador",-78.746628,-2.6264901
ECF0302,Ecuador,Canar,Biblian,,canton,2,F,218,EC-F,ECU,EC,"Biblian, Canar, Ecuador",-78.980919,-2.6585097
ECF0303,Ecuador,Canar,Canar,,canton,2,F,218,EC-F,ECU,EC,"Canar, Canar, Ecuador",-79.068695,-2.5815547
ECF0304,Ecuador,Canar,La Troncal,,canton,2,F,218,EC-F,ECU,EC,"La Troncal, Canar, Ecuador",-79.38192,-2.4485905
ECF0305,Ecuador,Canar,El Tambo,,canton,2,F,218,EC-F,ECU,EC,"El Tambo, Canar, Ecuador",-78.921928,-2.504106
ECF0306,Ecuador,Canar,Deleg,,canton,2,F,218,EC-F,ECU,EC,"Deleg, Canar, Ecuador",-78.939415,-2.7628953
ECF0307,Ecuador,Canar,Suscal,,canton,2,F,218,EC-F,ECU,EC,"Suscal, Canar, Ecuador",-79.066856,-2.4642317
ECG0901,Ecuador,Guayas,Guayaquil,,canton,2,G,218,EC-G,ECU,EC,"Guayaquil, Guayas, Ecuador",-80.159882,-2.3322947
ECG0902,Ecuador,Guayas,Alfredo Baquerizo Moreno,,canton,2,G,218,EC-G,ECU,EC,"Alfredo Baquerizo Moreno, Guayas, Ecuador",-79.547424,-1.9469465
ECG0903,Ecuador,Guayas,Balao,,canton,2,G,218,EC-G,ECU,EC,"Balao, Guayas, Ecuador",-79.734077,-2.8925951
ECG0904,Ecuador,Guayas,Balzar,,canton,2,G,218,EC-G,ECU,EC,"Balzar, Guayas, Ecuador",-79.907303,-1.2902486
ECG0905,Ecuador,Guayas,Colimes,,canton,2,G,218,EC-G,ECU,EC,"Colimes, Guayas, Ecuador",-80.087547,-1.5309749
ECG0906,Ecuador,Guayas,Daule,,canton,2,G,218,EC-G,ECU,EC,"Daule, Guayas, Ecuador",-79.943199,-1.9008986
ECG0907,Ecuador,Guayas,Duran,,canton,2,G,218,EC-G,ECU,EC,"Duran, Guayas, Ecuador",-79.777031,-2.2308514
ECG0908,Ecuador,Guayas,Empalme,,canton,2,G,218,EC-G,ECU,EC,"Empalme, Guayas, Ecuador",-79.660263,-.98788673
ECG0909,Ecuador,Guayas,El Triunfo,,canton,2,G,218,EC-G,ECU,EC,"El Triunfo, Guayas, Ecuador",-79.381294,-2.3181701
ECG0910,Ecuador,Guayas,Milagro,,canton,2,G,218,EC-G,ECU,EC,"Milagro, Guayas, Ecuador",-79.560112,-2.1183052
ECG0911,Ecuador,Guayas,Naranjal,,canton,2,G,218,EC-G,ECU,EC,"Naranjal, Guayas, Ecuador",-79.607651,-2.5351198
ECG0912,Ecuador,Guayas,Naranjito,,canton,2,G,218,EC-G,ECU,EC,"Naranjito, Guayas, Ecuador",-79.397842,-2.1540701
ECG0913,Ecuador,Guayas,Palestina,,canton,2,G,218,EC-G,ECU,EC,"Palestina, Guayas, Ecuador",-79.919273,-1.6368492
ECG0914,Ecuador,Guayas,Pedro Carbo,,canton,2,G,218,EC-G,ECU,EC,"Pedro Carbo, Guayas, Ecuador",-80.289032,-1.8510649
ECG0916,Ecuador,Guayas,Samborondon,,canton,2,G,218,EC-G,ECU,EC,"Samborondon, Guayas, Ecuador",-79.783043,-1.9829764
ECG0918,Ecuador,Guayas,Santa Lucia,,canton,2,G,218,EC-G,ECU,EC,"Santa Lucia, Guayas, Ecuador",-80.035172,-1.7145147
ECG0919,Ecuador,Guayas,Salitre,,canton,2,G,218,EC-G,ECU,EC,"Salitre, Guayas, Ecuador",-79.802734,-1.8051111
ECG0920,Ecuador,Guayas,San Jacinto De Yaguachi,,canton,2,G,218,EC-G,ECU,EC,"San Jacinto De Yaguachi, Guayas, Ecuador",-79.743042,-2.1027308
ECG0921,Ecuador,Guayas,Playas,,canton,2,G,218,EC-G,ECU,EC,"Playas, Guayas, Ecuador",-80.438202,-2.5567334
ECG0922,Ecuador,Guayas,Simon Bolivar,,canton,2,G,218,EC-G,ECU,EC,"Simon Bolivar, Guayas, Ecuador",-79.407631,-2.0372615
ECG0923,Ecuador,Guayas,Coronel Marcelino Mariduena,,canton,2,G,218,EC-G,ECU,EC,"Coronel Marcelino Mariduena, Guayas, Ecuador",-79.38208,-2.2392006
ECG0924,Ecuador,Guayas,Lomas De Sargentillo,,canton,2,G,218,EC-G,ECU,EC,"Lomas De Sargentillo, Guayas, Ecuador",-80.080292,-1.8501806
ECG0925,Ecuador,Guayas,Nobol,,canton,2,G,218,EC-G,ECU,EC,"Nobol, Guayas, Ecuador",-80.049446,-1.9652355
ECG0927,Ecuador,Guayas,General Antonio Elizalde,,canton,2,G,218,EC-G,ECU,EC,"General Antonio Elizalde, Guayas, Ecuador",-79.202225,-2.1562934
ECG0928,Ecuador,Guayas,Isidro Ayora,,canton,2,G,218,EC-G,ECU,EC,"Isidro Ayora, Guayas, Ecuador",-80.162567,-1.962422
ECH0601,Ecuador,Chimborazo,Riobamba,,canton,2,H,218,EC-H,ECU,EC,"Riobamba, Chimborazo, Ecuador",-78.773239,-1.6133019
ECH0602,Ecuador,Chimborazo,Alausi,,canton,2,H,218,EC-H,ECU,EC,"Alausi, Chimborazo, Ecuador",-78.741829,-2.2955356
ECH0603,Ecuador,Chimborazo,Colta,,canton,2,H,218,EC-H,ECU,EC,"Colta, Chimborazo, Ecuador",-78.844063,-1.8157445
ECH0604,Ecuador,Chimborazo,Chambo,,canton,2,H,218,EC-H,ECU,EC,"Chambo, Chimborazo, Ecuador",-78.539154,-1.7588209
ECH0605,Ecuador,Chimborazo,Chunchi,,canton,2,H,218,EC-H,ECU,EC,"Chunchi, Chimborazo, Ecuador",-78.905449,-2.3345094
ECH0606,Ecuador,Chimborazo,Guamote,,canton,2,H,218,EC-H,ECU,EC,"Guamote, Chimborazo, Ecuador",-78.638596,-2.0387371
ECH0607,Ecuador,Chimborazo,Guano,,canton,2,H,218,EC-H,ECU,EC,"Guano, Chimborazo, Ecuador",-78.681938,-1.5600159
ECH0608,Ecuador,Chimborazo,Pallatanga,,canton,2,H,218,EC-H,ECU,EC,"Pallatanga, Chimborazo, Ecuador",-78.930298,-2.0170255
ECH0609,Ecuador,Chimborazo,Penipe,,canton,2,H,218,EC-H,ECU,EC,"Penipe, Chimborazo, Ecuador",-78.449928,-1.5664217
ECH0610,Ecuador,Chimborazo,Cumanda,,canton,2,H,218,EC-H,ECU,EC,"Cumanda, Chimborazo, Ecuador",-79.050987,-2.2050884
ECI1001,Ecuador,Imbabura,Ibarra,,canton,2,I,218,EC-I,ECU,EC,"Ibarra, Imbabura, Ecuador",-78.086739,.32927912
ECI1002,Ecuador,Imbabura,Antonio Ante,,canton,2,I,218,EC-I,ECU,EC,"Antonio Ante, Imbabura, Ecuador",-78.217911,.32591781
ECI1003,Ecuador,Imbabura,Cotacachi,,canton,2,I,218,EC-I,ECU,EC,"Cotacachi, Imbabura, Ecuador",-78.744987,.31842792
ECI1004,Ecuador,Imbabura,Otavalo,,canton,2,I,218,EC-I,ECU,EC,"Otavalo, Imbabura, Ecuador",-78.246437,.21288744
ECI1005,Ecuador,Imbabura,Pimampiro,,canton,2,I,218,EC-I,ECU,EC,"Pimampiro, Imbabura, Ecuador",-77.934341,.28842503
ECI1006,Ecuador,Imbabura,San Miguel De Urcuqui,,canton,2,I,218,EC-I,ECU,EC,"San Miguel De Urcuqui, Imbabura, Ecuador",-78.316666,.56708074
ECL1101,Ecuador,Loja,Loja,,canton,2,L,218,EC-L,ECU,EC,"Loja, Loja, Ecuador",-79.434761,-3.8470805
ECL1102,Ecuador,Loja,Calvas,,canton,2,L,218,EC-L,ECU,EC,"Calvas, Loja, Ecuador",-79.603996,-4.3372684
ECL1103,Ecuador,Loja,Catamayo,,canton,2,L,218,EC-L,ECU,EC,"Catamayo, Loja, Ecuador",-79.403206,-3.9614174
ECL1104,Ecuador,Loja,Celica,,canton,2,L,218,EC-L,ECU,EC,"Celica, Loja, Ecuador",-80.029572,-4.1677108
ECL1105,Ecuador,Loja,Chaguarpamba,,canton,2,L,218,EC-L,ECU,EC,"Chaguarpamba, Loja, Ecuador",-79.670525,-3.8532774
ECL1106,Ecuador,Loja,Espindola,,canton,2,L,218,EC-L,ECU,EC,"Espindola, Loja, Ecuador",-79.411293,-4.5469432
ECL1107,Ecuador,Loja,Gonzanama,,canton,2,L,218,EC-L,ECU,EC,"Gonzanama, Loja, Ecuador",-79.456085,-4.1595125
ECL1108,Ecuador,Loja,Macara,,canton,2,L,218,EC-L,ECU,EC,"Macara, Loja, Ecuador",-79.945831,-4.3043737
ECL1109,Ecuador,Loja,Paltas,,canton,2,L,218,EC-L,ECU,EC,"Paltas, Loja, Ecuador",-79.759026,-4.0130539
ECL1110,Ecuador,Loja,Puyango,,canton,2,L,218,EC-L,ECU,EC,"Puyango, Loja, Ecuador",-80.072227,-3.9745958
ECL1111,Ecuador,Loja,Saraguro,,canton,2,L,218,EC-L,ECU,EC,"Saraguro, Loja, Ecuador",-79.296989,-3.5699303
ECL1112,Ecuador,Loja,Sozoranga,,canton,2,L,218,EC-L,ECU,EC,"Sozoranga, Loja, Ecuador",-79.832626,-4.2381048
ECL1113,Ecuador,Loja,Zapotillo,,canton,2,L,218,EC-L,ECU,EC,"Zapotillo, Loja, Ecuador",-80.391022,-4.3920684
ECL1114,Ecuador,Loja,Pindal,,canton,2,L,218,EC-L,ECU,EC,"Pindal, Loja, Ecuador",-80.131271,-4.0931273
ECL1115,Ecuador,Loja,Quilanga,,canton,2,L,218,EC-L,ECU,EC,"Quilanga, Loja, Ecuador",-79.383301,-4.3433514
ECL1116,Ecuador,Loja,Olmedo,,canton,2,L,218,EC-L,ECU,EC,"Olmedo, Loja, Ecuador",-79.597046,-3.9364302
ECM1301,Ecuador,Manabi,Portoviejo,,canton,2,M,218,EC-M,ECU,EC,"Portoviejo, Manabi, Ecuador",-80.364319,-1.041083
ECM1302,Ecuador,Manabi,Bolivar,,canton,2,M,218,EC-M,ECU,EC,"Bolivar, Manabi, Ecuador",-80.033928,-.90954107
ECM1303,Ecuador,Manabi,Chone,,canton,2,M,218,EC-M,ECU,EC,"Chone, Manabi, Ecuador",-80.110542,-.57269776
ECM1304,Ecuador,Manabi,El Carmen,,canton,2,M,218,EC-M,ECU,EC,"El Carmen, Manabi, Ecuador",-79.57119,-.43595308
ECM1305,Ecuador,Manabi,Flavio Alfaro,,canton,2,M,218,EC-M,ECU,EC,"Flavio Alfaro, Manabi, Ecuador",-79.817383,-.32503039
ECM1306,Ecuador,Manabi,Jipijapa,,canton,2,M,218,EC-M,ECU,EC,"Jipijapa, Manabi, Ecuador",-80.590881,-1.4454412
ECM1307,Ecuador,Manabi,Junin,,canton,2,M,218,EC-M,ECU,EC,"Junin, Manabi, Ecuador",-80.195335,-.94162029
ECM1308,Ecuador,Manabi,Manta,,canton,2,M,218,EC-M,ECU,EC,"Manta, Manabi, Ecuador",-80.803452,-1.0271473
ECM1309,Ecuador,Manabi,Montecristi,,canton,2,M,218,EC-M,ECU,EC,"Montecristi, Manabi, Ecuador",-80.696472,-1.1268402
ECM1310,Ecuador,Manabi,Pajan,,canton,2,M,218,EC-M,ECU,EC,"Pajan, Manabi, Ecuador",-80.397842,-1.661701
ECM1311,Ecuador,Manabi,Pichincha,,canton,2,M,218,EC-M,ECU,EC,"Pichincha, Manabi, Ecuador",-79.764488,-.8015821
ECM1312,Ecuador,Manabi,Rocafuerte,,canton,2,M,218,EC-M,ECU,EC,"Rocafuerte, Manabi, Ecuador",-80.405823,-.90570462
ECM1313,Ecuador,Manabi,Santa Ana,,canton,2,M,218,EC-M,ECU,EC,"Santa Ana, Manabi, Ecuador",-80.212357,-1.1961316
ECM1314,Ecuador,Manabi,Sucre,,canton,2,M,218,EC-M,ECU,EC,"Sucre, Manabi, Ecuador",-80.42881,-.74311411
ECM1315,Ecuador,Manabi,Tosagua,,canton,2,M,218,EC-M,ECU,EC,"Tosagua, Manabi, Ecuador",-80.271301,-.78006071
ECM1316,Ecuador,Manabi,Veinticuatro De Mayo,,canton,2,M,218,EC-M,ECU,EC,"Veinticuatro De Mayo, Manabi, Ecuador",-80.374832,-1.3829463
ECM1317,Ecuador,Manabi,Pedernales,,canton,2,M,218,EC-M,ECU,EC,"Pedernales, Manabi, Ecuador",-79.892593,.095177248
ECM1318,Ecuador,Manabi,Olmedo,,canton,2,M,218,EC-M,ECU,EC,"Olmedo, Manabi, Ecuador",-80.213531,-1.3614237
ECM1319,Ecuador,Manabi,Puerto Lopez,,canton,2,M,218,EC-M,ECU,EC,"Puerto Lopez, Manabi, Ecuador",-80.750664,-1.5635716
ECM1320,Ecuador,Manabi,Jama,,canton,2,M,218,EC-M,ECU,EC,"Jama, Manabi, Ecuador",-80.230606,-.22144565
ECM1321,Ecuador,Manabi,Jaramijo,,canton,2,M,218,EC-M,ECU,EC,"Jaramijo, Manabi, Ecuador",-80.603661,-.97567469
ECM1322,Ecuador,Manabi,San Vicente,,canton,2,M,218,EC-M,ECU,EC,"San Vicente, Manabi, Ecuador",-80.359207,-.4775089
ECN1501,Ecuador,Napo,Tena,,canton,2,N,218,EC-N,ECU,EC,"Tena, Napo, Ecuador",-77.379662,-.9902243
ECN1503,Ecuador,Napo,Archidona,,canton,2,N,218,EC-N,ECU,EC,"Archidona, Napo, Ecuador",-77.727898,-.73279381
ECN1504,Ecuador,Napo,El Chaco,,canton,2,N,218,EC-N,ECU,EC,"El Chaco, Napo, Ecuador",-77.672554,-.25104165
ECN1507,Ecuador,Napo,Quijos,,canton,2,N,218,EC-N,ECU,EC,"Quijos, Napo, Ecuador",-77.907646,-.52130729
ECN1509,Ecuador,Napo,Carlos Julio Arosemena Tola,,canton,2,N,218,EC-N,ECU,EC,"Carlos Julio Arosemena Tola, Napo, Ecuador",-77.939987,-1.1640762
ECO0701,Ecuador,El Oro,Machala,,canton,2,O,218,EC-O,ECU,EC,"Machala, El Oro, Ecuador",-79.944427,-3.3211312
ECO0702,Ecuador,El Oro,Arenillas,,canton,2,O,218,EC-O,ECU,EC,"Arenillas, El Oro, Ecuador",-80.089432,-3.5997734
ECO0703,Ecuador,El Oro,Atahualpa,,canton,2,O,218,EC-O,ECU,EC,"Atahualpa, El Oro, Ecuador",-79.719933,-3.5308595
ECO0704,Ecuador,El Oro,Balsas,,canton,2,O,218,EC-O,ECU,EC,"Balsas, El Oro, Ecuador",-79.837669,-3.7687752
ECO0705,Ecuador,El Oro,Chilla,,canton,2,O,218,EC-O,ECU,EC,"Chilla, El Oro, Ecuador",-79.627541,-3.4416072
ECO0706,Ecuador,El Oro,El Guabo,,canton,2,O,218,EC-O,ECU,EC,"El Guabo, El Oro, Ecuador",-79.788666,-3.1693146
ECO0707,Ecuador,El Oro,Huaquillas,,canton,2,O,218,EC-O,ECU,EC,"Huaquillas, El Oro, Ecuador",-80.186821,-3.4618812
ECO0708,Ecuador,El Oro,Marcabeli,,canton,2,O,218,EC-O,ECU,EC,"Marcabeli, El Oro, Ecuador",-79.931931,-3.7800138
ECO0709,Ecuador,El Oro,Pasaje,,canton,2,O,218,EC-O,ECU,EC,"Pasaje, El Oro, Ecuador",-79.734375,-3.3287382
ECO0710,Ecuador,El Oro,Pinas,,canton,2,O,218,EC-O,ECU,EC,"Pinas, El Oro, Ecuador",-79.713097,-3.703403
ECO0711,Ecuador,El Oro,Portovelo,,canton,2,O,218,EC-O,ECU,EC,"Portovelo, El Oro, Ecuador",-79.502708,-3.7408979
ECO0712,Ecuador,El Oro,Santa Rosa,,canton,2,O,218,EC-O,ECU,EC,"Santa Rosa, El Oro, Ecuador",-79.901634,-3.4948819
ECO0713,Ecuador,El Oro,Zaruma,,canton,2,O,218,EC-O,ECU,EC,"Zaruma, El Oro, Ecuador",-79.581261,-3.617871
ECO0714,Ecuador,El Oro,Las Lajas,,canton,2,O,218,EC-O,ECU,EC,"Las Lajas, El Oro, Ecuador",-80.06842,-3.8036637
ECP1701,Ecuador,Pichincha,Quito,,canton,2,P,218,EC-P,ECU,EC,"Quito, Pichincha, Ecuador",-78.519157,-.10398275
ECP1702,Ecuador,Pichincha,Cayambe,,canton,2,P,218,EC-P,ECU,EC,"Cayambe, Pichincha, Ecuador",-78.074646,-.0040288582
ECP1703,Ecuador,Pichincha,Mejia,,canton,2,P,218,EC-P,ECU,EC,"Mejia, Pichincha, Ecuador",-78.629524,-.4919616
ECP1704,Ecuador,Pichincha,Pedro Moncayo,,canton,2,P,218,EC-P,ECU,EC,"Pedro Moncayo, Pichincha, Ecuador",-78.276756,.052831706
ECP1705,Ecuador,Pichincha,Ruminahui,,canton,2,P,218,EC-P,ECU,EC,"Ruminahui, Pichincha, Ecuador",-78.442963,-.40122327
ECP1707,Ecuador,Pichincha,San Miguel De Los Bancos,,canton,2,P,218,EC-P,ECU,EC,"San Miguel De Los Bancos, Pichincha, Ecuador",-78.893822,-.038161311
ECP1708,Ecuador,Pichincha,Pedro Vicente Maldonado,,canton,2,P,218,EC-P,ECU,EC,"Pedro Vicente Maldonado, Pichincha, Ecuador",-79.057922,.14895004
ECP1709,Ecuador,Pichincha,Puerto Quito,,canton,2,P,218,EC-P,ECU,EC,"Puerto Quito, Pichincha, Ecuador",-79.23938,.15559873
ECR1201,Ecuador,Los Rios,Babahoyo,,canton,2,R,218,EC-R,ECU,EC,"Babahoyo, Los Rios, Ecuador",-79.552551,-1.7812531
ECR1202,Ecuador,Los Rios,Baba,,canton,2,R,218,EC-R,ECU,EC,"Baba, Los Rios, Ecuador",-79.661057,-1.6810298
ECR1203,Ecuador,Los Rios,Montalvo,,canton,2,R,218,EC-R,ECU,EC,"Montalvo, Los Rios, Ecuador",-79.31736,-1.8047674
ECR1204,Ecuador,Los Rios,Puebloviejo,,canton,2,R,218,EC-R,ECU,EC,"Puebloviejo, Los Rios, Ecuador",-79.545311,-1.5502208
ECR1205,Ecuador,Los Rios,Quevedo,,canton,2,R,218,EC-R,ECU,EC,"Quevedo, Los Rios, Ecuador",-79.457184,-1.0449618
ECR1206,Ecuador,Los Rios,Urdaneta,,canton,2,R,218,EC-R,ECU,EC,"Urdaneta, Los Rios, Ecuador",-79.389008,-1.566206
ECR1207,Ecuador,Los Rios,Ventanas,,canton,2,R,218,EC-R,ECU,EC,"Ventanas, Los Rios, Ecuador",-79.409187,-1.4107881
ECR1208,Ecuador,Los Rios,Vinces,,canton,2,R,218,EC-R,ECU,EC,"Vinces, Los Rios, Ecuador",-79.784981,-1.5910081
ECR1209,Ecuador,Los Rios,Palenque,,canton,2,R,218,EC-R,ECU,EC,"Palenque, Los Rios, Ecuador",-79.715401,-1.3342851
ECR1210,Ecuador,Los Rios,Buena Fe,,canton,2,R,218,EC-R,ECU,EC,"Buena Fe, Los Rios, Ecuador",-79.543556,-.7841078
ECR1211,Ecuador,Los Rios,Valencia,,canton,2,R,218,EC-R,ECU,EC,"Valencia, Los Rios, Ecuador",-79.306633,-.77748656
ECR1212,Ecuador,Los Rios,Mocache,,canton,2,R,218,EC-R,ECU,EC,"Mocache, Los Rios, Ecuador",-79.549843,-1.1896709
ECR1213,Ecuador,Los Rios,Quinsaloma,,canton,2,R,218,EC-R,ECU,EC,"Quinsaloma, Los Rios, Ecuador",-79.323265,-1.1909851
ECS1401,Ecuador,Morona Santiago,Morona,,canton,2,S,218,EC-S,ECU,EC,"Morona, Morona Santiago, Ecuador",-78.115334,-2.2097948
ECS1402,Ecuador,Morona Santiago,Gualaquiza,,canton,2,S,218,EC-S,ECU,EC,"Gualaquiza, Morona Santiago, Ecuador",-78.652832,-3.3648169
ECS1403,Ecuador,Morona Santiago,Limon Indanza,,canton,2,S,218,EC-S,ECU,EC,"Limon Indanza, Morona Santiago, Ecuador",-78.348053,-3.0386612
ECS1404,Ecuador,Morona Santiago,Palora,,canton,2,S,218,EC-S,ECU,EC,"Palora, Morona Santiago, Ecuador",-78.113045,-1.6716826
ECS1405,Ecuador,Morona Santiago,Santiago,,canton,2,S,218,EC-S,ECU,EC,"Santiago, Morona Santiago, Ecuador",-78.356934,-2.6864479
ECS1406,Ecuador,Morona Santiago,Sucua,,canton,2,S,218,EC-S,ECU,EC,"Sucua, Morona Santiago, Ecuador",-78.256096,-2.4608212
ECS1407,Ecuador,Morona Santiago,Huamboya,,canton,2,S,218,EC-S,ECU,EC,"Huamboya, Morona Santiago, Ecuador",-77.956703,-1.984255
ECS1408,Ecuador,Morona Santiago,San Juan Bosco,,canton,2,S,218,EC-S,ECU,EC,"San Juan Bosco, Morona Santiago, Ecuador",-78.375954,-3.2567661
ECS1409,Ecuador,Morona Santiago,Taisha,,canton,2,S,218,EC-S,ECU,EC,"Taisha, Morona Santiago, Ecuador",-77.391418,-2.4756401
ECS1410,Ecuador,Morona Santiago,Logrono,,canton,2,S,218,EC-S,ECU,EC,"Logrono, Morona Santiago, Ecuador",-78.041374,-2.7671189
ECS1411,Ecuador,Morona Santiago,Pablo Sexto,,canton,2,S,218,EC-S,ECU,EC,"Pablo Sexto, Morona Santiago, Ecuador",-78.275848,-1.8584458
ECS1412,Ecuador,Morona Santiago,Tiwintza,,canton,2,S,218,EC-S,ECU,EC,"Tiwintza, Morona Santiago, Ecuador",-77.908157,-2.9845972
ECSD0808,Ecuador,Sto. Domingo Tsachilas,La Concordia,,canton,2,SD,218,EC-SD,ECU,EC,"La Concordia, Sto. Domingo Tsachilas, Ecuador",-79.374771,-.042018849
ECSD2301,Ecuador,Sto. Domingo Tsachilas,Santo Domingo,,canton,2,SD,218,EC-SD,ECU,EC,"Santo Domingo, Sto. Domingo Tsachilas, Ecuador",-79.176819,-.30606508
ECSE2401,Ecuador,Santa Elena,Santa Elena,,canton,2,SE,218,EC-SE,ECU,EC,"Santa Elena, Santa Elena, Ecuador",-80.542343,-2.1792891
ECSE2402,Ecuador,Santa Elena,La Libertad,,canton,2,SE,218,EC-SE,ECU,EC,"La Libertad, Santa Elena, Ecuador",-80.895111,-2.2344272
ECSE2403,Ecuador,Santa Elena,Salinas,,canton,2,SE,218,EC-SE,ECU,EC,"Salinas, Santa Elena, Ecuador",-80.934845,-2.2412531
ECT1801,Ecuador,Tungurahua,Ambato,,canton,2,T,218,EC-T,ECU,EC,"Ambato, Tungurahua, Ecuador",-78.749702,-1.2783426
ECT1802,Ecuador,Tungurahua,Banos,,canton,2,T,218,EC-T,ECU,EC,"Banos, Tungurahua, Ecuador",-78.273399,-1.3366392
ECT1803,Ecuador,Tungurahua,Cevallos,,canton,2,T,218,EC-T,ECU,EC,"Cevallos, Tungurahua, Ecuador",-78.612473,-1.3506221
ECT1804,Ecuador,Tungurahua,Mocha,,canton,2,T,218,EC-T,ECU,EC,"Mocha, Tungurahua, Ecuador",-78.69413,-1.4175091
ECT1805,Ecuador,Tungurahua,Patate,,canton,2,T,218,EC-T,ECU,EC,"Patate, Tungurahua, Ecuador",-78.42498,-1.2712584
ECT1806,Ecuador,Tungurahua,Quero,,canton,2,T,218,EC-T,ECU,EC,"Quero, Tungurahua, Ecuador",-78.619965,-1.4461777
ECT1807,Ecuador,Tungurahua,Pelileo,,canton,2,T,218,EC-T,ECU,EC,"Pelileo, Tungurahua, Ecuador",-78.531921,-1.3609018
ECT1808,Ecuador,Tungurahua,Pillaro,,canton,2,T,218,EC-T,ECU,EC,"Pillaro, Tungurahua, Ecuador",-78.449478,-1.144375
ECT1809,Ecuador,Tungurahua,Tisaleo,,canton,2,T,218,EC-T,ECU,EC,"Tisaleo, Tungurahua, Ecuador",-78.680183,-1.3664957
ECU2101,Ecuador,Sucumbios,Lago Agrio,,canton,2,U,218,EC-U,ECU,EC,"Lago Agrio, Sucumbios, Ecuador",-76.776657,.10983953
ECU2102,Ecuador,Sucumbios,Gonzalo Pizarro,,canton,2,U,218,EC-U,ECU,EC,"Gonzalo Pizarro, Sucumbios, Ecuador",-77.587082,.081758551
ECU2103,Ecuador,Sucumbios,Putumayo,,canton,2,U,218,EC-U,ECU,EC,"Putumayo, Sucumbios, Ecuador",-76.011345,.078973547
ECU2104,Ecuador,Sucumbios,Shushufindi,,canton,2,U,218,EC-U,ECU,EC,"Shushufindi, Sucumbios, Ecuador",-76.389977,-.40661076
ECU2105,Ecuador,Sucumbios,Sucumbios,,canton,2,U,218,EC-U,ECU,EC,"Sucumbios, Sucumbios, Ecuador",-77.6231,.40217763
ECU2106,Ecuador,Sucumbios,Cascales,,canton,2,U,218,EC-U,ECU,EC,"Cascales, Sucumbios, Ecuador",-77.232849,.14575222
ECU2107,Ecuador,Sucumbios,Cuyabeno,,canton,2,U,218,EC-U,ECU,EC,"Cuyabeno, Sucumbios, Ecuador",-75.87944,-.27967039
ECW2001,Ecuador,Galapagos,San Cristobal,,canton,2,W,218,EC-W,ECU,EC,"San Cristobal, Galapagos, Ecuador",-89.430382,-.82654768
ECW2002,Ecuador,Galapagos,Isabela,,canton,2,W,218,EC-W,ECU,EC,"Isabela, Galapagos, Ecuador",-91.187469,-.8643887
ECW2003,Ecuador,Galapagos,Santa Cruz,,canton,2,W,218,EC-W,ECU,EC,"Santa Cruz, Galapagos, Ecuador",-90.358582,-.62705904
ECX0501,Ecuador,Cotopaxi,Latacunga,,canton,2,X,218,EC-X,ECU,EC,"Latacunga, Cotopaxi, Ecuador",-78.580391,-.79444379
ECX0502,Ecuador,Cotopaxi,La Mana,,canton,2,X,218,EC-X,ECU,EC,"La Mana, Cotopaxi, Ecuador",-79.075127,-.68914443
ECX0503,Ecuador,Cotopaxi,Pangua,,canton,2,X,218,EC-X,ECU,EC,"Pangua, Cotopaxi, Ecuador",-79.136772,-1.0831132
ECX0504,Ecuador,Cotopaxi,Pujili,,canton,2,X,218,EC-X,ECU,EC,"Pujili, Cotopaxi, Ecuador",-78.900505,-.9916178
ECX0505,Ecuador,Cotopaxi,Salcedo,,canton,2,X,218,EC-X,ECU,EC,"Salcedo, Cotopaxi, Ecuador",-78.51239,-1.0287721
ECX0506,Ecuador,Cotopaxi,Saquisili,,canton,2,X,218,EC-X,ECU,EC,"Saquisili, Cotopaxi, Ecuador",-78.74279,-.82429308
ECX0507,Ecuador,Cotopaxi,Sigchos,,canton,2,X,218,EC-X,ECU,EC,"Sigchos, Cotopaxi, Ecuador",-78.926598,-.63552576
ECY1601,Ecuador,Pastaza,Pastaza,,canton,2,Y,218,EC-Y,ECU,EC,"Pastaza, Pastaza, Ecuador",-76.883629,-1.8975379
ECY1602,Ecuador,Pastaza,Mera,,canton,2,Y,218,EC-Y,ECU,EC,"Mera, Pastaza, Ecuador",-77.983818,-1.6267495
ECY1603,Ecuador,Pastaza,Santa Clara,,canton,2,Y,218,EC-Y,ECU,EC,"Santa Clara, Pastaza, Ecuador",-77.850761,-1.2811182
ECY1604,Ecuador,Pastaza,Arajuno,,canton,2,Y,218,EC-Y,ECU,EC,"Arajuno, Pastaza, Ecuador",-77.249153,-1.2679749
ECZ1901,Ecuador,Zamora Chinchipe,Zamora,,canton,2,Z,218,EC-Z,ECU,EC,"Zamora, Zamora Chinchipe, Ecuador",-78.982742,-4.012517
ECZ1902,Ecuador,Zamora Chinchipe,Chinchipe,,canton,2,Z,218,EC-Z,ECU,EC,"Chinchipe, Zamora Chinchipe, Ecuador",-79.163261,-4.8483553
ECZ1903,Ecuador,Zamora Chinchipe,Nangaritza,,canton,2,Z,218,EC-Z,ECU,EC,"Nangaritza, Zamora Chinchipe, Ecuador",-78.762634,-4.3429151
ECZ1904,Ecuador,Zamora Chinchipe,Yacuambi,,canton,2,Z,218,EC-Z,ECU,EC,"Yacuambi, Zamora Chinchipe, Ecuador",-78.967049,-3.6075356
ECZ1905,Ecuador,Zamora Chinchipe,Yantzaza,,canton,2,Z,218,EC-Z,ECU,EC,"Yantzaza, Zamora Chinchipe, Ecuador",-78.629524,-3.7953272
ECZ1906,Ecuador,Zamora Chinchipe,El Pangui,,canton,2,Z,218,EC-Z,ECU,EC,"El Pangui, Zamora Chinchipe, Ecuador",-78.535583,-3.6227491
ECZ1907,Ecuador,Zamora Chinchipe,Centinela Del Condor,,canton,2,Z,218,EC-Z,ECU,EC,"Centinela Del Condor, Zamora Chinchipe, Ecuador",-78.749069,-3.9353461
ECZ1908,Ecuador,Zamora Chinchipe,Palanda,,canton,2,Z,218,EC-Z,ECU,EC,"Palanda, Zamora Chinchipe, Ecuador",-79.093681,-4.569397
ECZ1909,Ecuador,Zamora Chinchipe,Paquisha,,canton,2,Z,218,EC-Z,ECU,EC,"Paquisha, Zamora Chinchipe, Ecuador",-78.595505,-3.9445212
COANT05001,Colombia,Antioquia,Medellin,,Municipality,2,ANT,170,CO-ANT,COL,CO,"Medellin, Antioquia, Colombia",-75.611031,6.2575903
COANT05002,Colombia,Antioquia,Abejorral,,Municipality,2,ANT,170,CO-ANT,COL,CO,"Abejorral, Antioquia, Colombia",-75.438477,5.8037281
COANT05004,Colombia,Antioquia,Abriaqui,,Municipality,2,ANT,170,CO-ANT,COL,CO,"Abriaqui, Antioquia, Colombia",-76.085976,6.6275692
COANT05021,Colombia,Antioquia,Alejandria,,Municipality,2,ANT,170,CO-ANT,COL,CO,"Alejandria, Antioquia, Colombia",-75.090599,6.3655343
COANT05030,Colombia,Antioquia,Amaga,,Municipality,2,ANT,170,CO-ANT,COL,CO,"Amaga, Antioquia, Colombia",-75.708,6.0329218
COANT05031,Colombia,Antioquia,Amalfi,,Municipality,2,ANT,170,CO-ANT,COL,CO,"Amalfi, Antioquia, Colombia",-74.981239,6.9777889
COANT05034,Colombia,Antioquia,Andes,,Municipality,2,ANT,170,CO-ANT,COL,CO,"Andes, Antioquia, Colombia",-75.924591,5.6239524
COANT05036,Colombia,Antioquia,Angelopolis,,Municipality,2,ANT,170,CO-ANT,COL,CO,"Angelopolis, Antioquia, Colombia",-75.71595,6.1214304
COANT05038,Colombia,Antioquia,Angostura,,Municipality,2,ANT,170,CO-ANT,COL,CO,"Angostura, Antioquia, Colombia",-75.358315,6.8614988
COANT05040,Colombia,Antioquia,Anori,,Municipality,2,ANT,170,CO-ANT,COL,CO,"Anori, Antioquia, Colombia",-75.10849,7.1931109
COANT05042,Colombia,Antioquia,Santa Fe De Antioquia,,Municipality,2,ANT,170,CO-ANT,COL,CO,"Santa Fe De Antioquia, Antioquia, Colombia",-75.904266,6.5357118
COANT05044,Colombia,Antioquia,Anza,,Municipality,2,ANT,170,CO-ANT,COL,CO,"Anza, Antioquia, Colombia",-75.91259,6.3080401
COANT05045,Colombia,Antioquia,Apartado,,Municipality,2,ANT,170,CO-ANT,COL,CO,"Apartado, Antioquia, Colombia",-76.566956,7.8961363
COANT05051,Colombia,Antioquia,Arboletes,,Municipality,2,ANT,170,CO-ANT,COL,CO,"Arboletes, Antioquia, Colombia",-76.41478,8.6113949
COANT05055,Colombia,Antioquia,Argelia,,Municipality,2,ANT,170,CO-ANT,COL,CO,"Argelia, Antioquia, Colombia",-75.094696,5.7081146
COANT05059,Colombia,Antioquia,Armenia,,Municipality,2,ANT,170,CO-ANT,COL,CO,"Armenia, Antioquia, Colombia",-75.809952,6.1636839
COANT05079,Colombia,Antioquia,Barbosa,,Municipality,2,ANT,170,CO-ANT,COL,CO,"Barbosa, Antioquia, Colombia",-75.329239,6.443418
COANT05086,Colombia,Antioquia,Belmira,,Municipality,2,ANT,170,CO-ANT,COL,CO,"Belmira, Antioquia, Colombia",-75.653854,6.6536627
COANT05088,Colombia,Antioquia,Bello,,Municipality,2,ANT,170,CO-ANT,COL,CO,"Bello, Antioquia, Colombia",-75.589737,6.3588409
COANT05091,Colombia,Antioquia,Betania,,Municipality,2,ANT,170,CO-ANT,COL,CO,"Betania, Antioquia, Colombia",-75.986893,5.7270813
COANT05093,Colombia,Antioquia,Betulia,,Municipality,2,ANT,170,CO-ANT,COL,CO,"Betulia, Antioquia, Colombia",-75.95649,6.1857834
COANT05101,Colombia,Antioquia,Ciudad Bolivar,,Municipality,2,ANT,170,CO-ANT,COL,CO,"Ciudad Bolivar, Antioquia, Colombia",-76.010651,5.8409958
COANT05107,Colombia,Antioquia,Briceno,,Municipality,2,ANT,170,CO-ANT,COL,CO,"Briceno, Antioquia, Colombia",-75.562233,7.1117883
COANT05113,Colombia,Antioquia,Buritica,,Municipality,2,ANT,170,CO-ANT,COL,CO,"Buritica, Antioquia, Colombia",-75.912064,6.8090649
COANT05120,Colombia,Antioquia,Caceres,,Municipality,2,ANT,170,CO-ANT,COL,CO,"Caceres, Antioquia, Colombia",-75.223694,7.6651549
COANT05125,Colombia,Antioquia,Caicedo,,Municipality,2,ANT,170,CO-ANT,COL,CO,"Caicedo, Antioquia, Colombia",-75.993515,6.4234638
COANT05129,Colombia,Antioquia,Caldas,,Municipality,2,ANT,170,CO-ANT,COL,CO,"Caldas, Antioquia, Colombia",-75.626427,6.0544467
COANT05134,Colombia,Antioquia,Campamento,,Municipality,2,ANT,170,CO-ANT,COL,CO,"Campamento, Antioquia, Colombia",-75.287659,7.0360174
COANT05138,Colombia,Antioquia,Canasgordas,,Municipality,2,ANT,170,CO-ANT,COL,CO,"Canasgordas, Antioquia, Colombia",-76.026894,6.81495
COANT05142,Colombia,Antioquia,Caracoli,,Municipality,2,ANT,170,CO-ANT,COL,CO,"Caracoli, Antioquia, Colombia",-74.733551,6.3379741
COANT05145,Colombia,Antioquia,Caramanta,,Municipality,2,ANT,170,CO-ANT,COL,CO,"Caramanta, Antioquia, Colombia",-75.630821,5.5552754
COANT05147,Colombia,Antioquia,Carepa,,Municipality,2,ANT,170,CO-ANT,COL,CO,"Carepa, Antioquia, Colombia",-76.656685,7.789166
COANT05148,Colombia,Antioquia,El Carmen De Viboral,,Municipality,2,ANT,170,CO-ANT,COL,CO,"El Carmen De Viboral, Antioquia, Colombia",-75.263535,5.9780788
COANT05150,Colombia,Antioquia,Carolina,,Municipality,2,ANT,170,CO-ANT,COL,CO,"Carolina, Antioquia, Colombia",-75.305908,6.7548213
COANT05154,Colombia,Antioquia,Caucasia,,Municipality,2,ANT,170,CO-ANT,COL,CO,"Caucasia, Antioquia, Colombia",-75.035019,7.8679419
COANT05172,Colombia,Antioquia,Chigorodo,,Municipality,2,ANT,170,CO-ANT,COL,CO,"Chigorodo, Antioquia, Colombia",-76.639641,7.6316657
COANT05190,Colombia,Antioquia,Cisneros,,Municipality,2,ANT,170,CO-ANT,COL,CO,"Cisneros, Antioquia, Colombia",-75.082542,6.5500655
COANT05197,Colombia,Antioquia,Cocorna,,Municipality,2,ANT,170,CO-ANT,COL,CO,"Cocorna, Antioquia, Colombia",-75.160156,6.0055933
COANT05206,Colombia,Antioquia,Concepcion,,Municipality,2,ANT,170,CO-ANT,COL,CO,"Concepcion, Antioquia, Colombia",-75.217857,6.3761063
COANT05209,Colombia,Antioquia,Concordia,,Municipality,2,ANT,170,CO-ANT,COL,CO,"Concordia, Antioquia, Colombia",-75.900146,6.0574689
COANT05212,Colombia,Antioquia,Copacabana,,Municipality,2,ANT,170,CO-ANT,COL,CO,"Copacabana, Antioquia, Colombia",-75.500755,6.3518829
COANT05234,Colombia,Antioquia,Dabeiba,,Municipality,2,ANT,170,CO-ANT,COL,CO,"Dabeiba, Antioquia, Colombia",-76.314262,6.9922438
COANT05237,Colombia,Antioquia,Donmatias,,Municipality,2,ANT,170,CO-ANT,COL,CO,"Donmatias, Antioquia, Colombia",-75.366829,6.5054116
COANT05240,Colombia,Antioquia,Ebejico,,Municipality,2,ANT,170,CO-ANT,COL,CO,"Ebejico, Antioquia, Colombia",-75.78331,6.3264451
COANT05250,Colombia,Antioquia,El Bagre,,Municipality,2,ANT,170,CO-ANT,COL,CO,"El Bagre, Antioquia, Colombia",-74.664276,7.7046332
COANT05264,Colombia,Antioquia,Entrerrios,,Municipality,2,ANT,170,CO-ANT,COL,CO,"Entrerrios, Antioquia, Colombia",-75.559128,6.594656
COANT05266,Colombia,Antioquia,Envigado,,Municipality,2,ANT,170,CO-ANT,COL,CO,"Envigado, Antioquia, Colombia",-75.546867,6.1543951
COANT05282,Colombia,Antioquia,Fredonia,,Municipality,2,ANT,170,CO-ANT,COL,CO,"Fredonia, Antioquia, Colombia",-75.67926,5.8877029
COANT05284,Colombia,Antioquia,Frontino,,Municipality,2,ANT,170,CO-ANT,COL,CO,"Frontino, Antioquia, Colombia",-76.331993,6.6913648
COANT05306,Colombia,Antioquia,Giraldo,,Municipality,2,ANT,170,CO-ANT,COL,CO,"Giraldo, Antioquia, Colombia",-75.948044,6.663096
COANT05308,Colombia,Antioquia,Girardota,,Municipality,2,ANT,170,CO-ANT,COL,CO,"Girardota, Antioquia, Colombia",-75.44796,6.379746
COANT05310,Colombia,Antioquia,Gomez Plata,,Municipality,2,ANT,170,CO-ANT,COL,CO,"Gomez Plata, Antioquia, Colombia",-75.192703,6.7095628
COANT05313,Colombia,Antioquia,Granada,,Municipality,2,ANT,170,CO-ANT,COL,CO,"Granada, Antioquia, Colombia",-75.12764,6.1233807
COANT05315,Colombia,Antioquia,Guadalupe,,Municipality,2,ANT,170,CO-ANT,COL,CO,"Guadalupe, Antioquia, Colombia",-75.225914,6.8615766
COANT05318,Colombia,Antioquia,Guarne,,Municipality,2,ANT,170,CO-ANT,COL,CO,"Guarne, Antioquia, Colombia",-75.437309,6.2666259
COANT05321,Colombia,Antioquia,Guatape,,Municipality,2,ANT,170,CO-ANT,COL,CO,"Guatape, Antioquia, Colombia",-75.158516,6.2457757
COANT05347,Colombia,Antioquia,Heliconia,,Municipality,2,ANT,170,CO-ANT,COL,CO,"Heliconia, Antioquia, Colombia",-75.74971,6.2145119
COANT05353,Colombia,Antioquia,Hispania,,Municipality,2,ANT,170,CO-ANT,COL,CO,"Hispania, Antioquia, Colombia",-75.906693,5.797039
COANT05360,Colombia,Antioquia,Itagui,,Municipality,2,ANT,170,CO-ANT,COL,CO,"Itagui, Antioquia, Colombia",-75.614204,6.1792793
COANT05361,Colombia,Antioquia,Ituango,,Municipality,2,ANT,170,CO-ANT,COL,CO,"Ituango, Antioquia, Colombia",-75.850349,7.3029461
COANT05364,Colombia,Antioquia,Jardin,,Municipality,2,ANT,170,CO-ANT,COL,CO,"Jardin, Antioquia, Colombia",-75.818428,5.5744443
COANT05368,Colombia,Antioquia,Jerico,,Municipality,2,ANT,170,CO-ANT,COL,CO,"Jerico, Antioquia, Colombia",-75.764885,5.7698207
COANT05376,Colombia,Antioquia,La Ceja,,Municipality,2,ANT,170,CO-ANT,COL,CO,"La Ceja, Antioquia, Colombia",-75.43087,5.9925246
COANT05380,Colombia,Antioquia,La Estrella,,Municipality,2,ANT,170,CO-ANT,COL,CO,"La Estrella, Antioquia, Colombia",-75.648956,6.1375957
COANT05390,Colombia,Antioquia,La Pintada,,Municipality,2,ANT,170,CO-ANT,COL,CO,"La Pintada, Antioquia, Colombia",-75.602203,5.7465839
COANT05400,Colombia,Antioquia,La Union,,Municipality,2,ANT,170,CO-ANT,COL,CO,"La Union, Antioquia, Colombia",-75.354294,5.9404345
COANT05411,Colombia,Antioquia,Liborina,,Municipality,2,ANT,170,CO-ANT,COL,CO,"Liborina, Antioquia, Colombia",-75.782997,6.7239909
COANT05425,Colombia,Antioquia,Maceo,,Municipality,2,ANT,170,CO-ANT,COL,CO,"Maceo, Antioquia, Colombia",-74.714111,6.5345736
COANT05440,Colombia,Antioquia,Marinilla,,Municipality,2,ANT,170,CO-ANT,COL,CO,"Marinilla, Antioquia, Colombia",-75.304878,6.185205
COANT05467,Colombia,Antioquia,Montebello,,Municipality,2,ANT,170,CO-ANT,COL,CO,"Montebello, Antioquia, Colombia",-75.51973,5.9168539
COANT05475,Colombia,Antioquia,Murindo,,Municipality,2,ANT,170,CO-ANT,COL,CO,"Murindo, Antioquia, Colombia",-76.708611,6.828774
COANT05480,Colombia,Antioquia,Mutata,,Municipality,2,ANT,170,CO-ANT,COL,CO,"Mutata, Antioquia, Colombia",-76.463066,7.3295579
COANT05483,Colombia,Antioquia,Narino,,Municipality,2,ANT,170,CO-ANT,COL,CO,"Narino, Antioquia, Colombia",-75.194572,5.5812755
COANT05490,Colombia,Antioquia,Necocli,,Municipality,2,ANT,170,CO-ANT,COL,CO,"Necocli, Antioquia, Colombia",-76.676994,8.4937286
COANT05495,Colombia,Antioquia,Nechi,,Municipality,2,ANT,170,CO-ANT,COL,CO,"Nechi, Antioquia, Colombia",-74.792419,7.9904675
COANT05501,Colombia,Antioquia,Olaya,,Municipality,2,ANT,170,CO-ANT,COL,CO,"Olaya, Antioquia, Colombia",-75.775673,6.6114182
COANT05541,Colombia,Antioquia,Penol,,Municipality,2,ANT,170,CO-ANT,COL,CO,"Penol, Antioquia, Colombia",-75.223511,6.2323966
COANT05543,Colombia,Antioquia,Peque,,Municipality,2,ANT,170,CO-ANT,COL,CO,"Peque, Antioquia, Colombia",-75.889687,7.0441799
COANT05576,Colombia,Antioquia,Pueblorrico,,Municipality,2,ANT,170,CO-ANT,COL,CO,"Pueblorrico, Antioquia, Colombia",-75.860764,5.8097019
COANT05579,Colombia,Antioquia,Puerto Berrio,,Municipality,2,ANT,170,CO-ANT,COL,CO,"Puerto Berrio, Antioquia, Colombia",-74.52874,6.4819221
COANT05585,Colombia,Antioquia,Puerto Nare,,Municipality,2,ANT,170,CO-ANT,COL,CO,"Puerto Nare, Antioquia, Colombia",-74.703178,6.1265392
COANT05591,Colombia,Antioquia,Puerto Triunfo,,Municipality,2,ANT,170,CO-ANT,COL,CO,"Puerto Triunfo, Antioquia, Colombia",-74.686195,5.9548302
COANT05604,Colombia,Antioquia,Remedios,,Municipality,2,ANT,170,CO-ANT,COL,CO,"Remedios, Antioquia, Colombia",-74.558655,6.9972672
COANT05607,Colombia,Antioquia,Retiro,,Municipality,2,ANT,170,CO-ANT,COL,CO,"Retiro, Antioquia, Colombia",-75.515739,6.0534444
COANT05615,Colombia,Antioquia,Rionegro,,Municipality,2,ANT,170,CO-ANT,COL,CO,"Rionegro, Antioquia, Colombia",-75.410759,6.1507859
COANT05628,Colombia,Antioquia,Sabanalarga,,Municipality,2,ANT,170,CO-ANT,COL,CO,"Sabanalarga, Antioquia, Colombia",-75.792229,6.9010005
COANT05631,Colombia,Antioquia,Sabaneta,,Municipality,2,ANT,170,CO-ANT,COL,CO,"Sabaneta, Antioquia, Colombia",-75.608803,6.1383052
COANT05642,Colombia,Antioquia,Salgar,,Municipality,2,ANT,170,CO-ANT,COL,CO,"Salgar, Antioquia, Colombia",-75.981369,5.9705024
COANT05647,Colombia,Antioquia,San Andres De Cuerquia,,Municipality,2,ANT,170,CO-ANT,COL,CO,"San Andres De Cuerquia, Antioquia, Colombia",-75.665779,6.9184275
COANT05649,Colombia,Antioquia,San Carlos,,Municipality,2,ANT,170,CO-ANT,COL,CO,"San Carlos, Antioquia, Colombia",-74.907326,6.1937895
COANT05652,Colombia,Antioquia,San Francisco,,Municipality,2,ANT,170,CO-ANT,COL,CO,"San Francisco, Antioquia, Colombia",-74.976036,5.8795056
COANT05656,Colombia,Antioquia,San Jeronimo,,Municipality,2,ANT,170,CO-ANT,COL,CO,"San Jeronimo, Antioquia, Colombia",-75.70311,6.4383006
COANT05658,Colombia,Antioquia,San Jose De La Montana,,Municipality,2,ANT,170,CO-ANT,COL,CO,"San Jose De La Montana, Antioquia, Colombia",-75.677711,6.8232589
COANT05659,Colombia,Antioquia,San Juan De Uraba,,Municipality,2,ANT,170,CO-ANT,COL,CO,"San Juan De Uraba, Antioquia, Colombia",-76.532486,8.7071419
COANT05660,Colombia,Antioquia,San Luis,,Municipality,2,ANT,170,CO-ANT,COL,CO,"San Luis, Antioquia, Colombia",-74.962006,6.0145168
COANT05664,Colombia,Antioquia,San Pedro De Los Milagros,,Municipality,2,ANT,170,CO-ANT,COL,CO,"San Pedro De Los Milagros, Antioquia, Colombia",-75.562485,6.4586663
COANT05665,Colombia,Antioquia,San Pedro De Uraba,,Municipality,2,ANT,170,CO-ANT,COL,CO,"San Pedro De Uraba, Antioquia, Colombia",-76.316643,8.3791571
COANT05667,Colombia,Antioquia,San Rafael,,Municipality,2,ANT,170,CO-ANT,COL,CO,"San Rafael, Antioquia, Colombia",-74.998589,6.3107448
COANT05670,Colombia,Antioquia,San Roque,,Municipality,2,ANT,170,CO-ANT,COL,CO,"San Roque, Antioquia, Colombia",-74.931862,6.4486752
COANT05674,Colombia,Antioquia,San Vicente Ferrer,,Municipality,2,ANT,170,CO-ANT,COL,CO,"San Vicente Ferrer, Antioquia, Colombia",-75.3274,6.3103876
COANT05679,Colombia,Antioquia,Santa Barbara,,Municipality,2,ANT,170,CO-ANT,COL,CO,"Santa Barbara, Antioquia, Colombia",-75.583305,5.8789849
COANT05686,Colombia,Antioquia,Santa Rosa De Osos,,Municipality,2,ANT,170,CO-ANT,COL,CO,"Santa Rosa De Osos, Antioquia, Colombia",-75.438141,6.675828
COANT05690,Colombia,Antioquia,Santo Domingo,,Municipality,2,ANT,170,CO-ANT,COL,CO,"Santo Domingo, Antioquia, Colombia",-75.142601,6.4810443
COANT05697,Colombia,Antioquia,El Santuario,,Municipality,2,ANT,170,CO-ANT,COL,CO,"El Santuario, Antioquia, Colombia",-75.252121,6.1242094
COANT05736,Colombia,Antioquia,Segovia,,Municipality,2,ANT,170,CO-ANT,COL,CO,"Segovia, Antioquia, Colombia",-74.621643,7.2669234
COANT05756,Colombia,Antioquia,Sonson,,Municipality,2,ANT,170,CO-ANT,COL,CO,"Sonson, Antioquia, Colombia",-75.059357,5.7625036
COANT05761,Colombia,Antioquia,Sopetran,,Municipality,2,ANT,170,CO-ANT,COL,CO,"Sopetran, Antioquia, Colombia",-75.745811,6.5201645
COANT05789,Colombia,Antioquia,Tamesis,,Municipality,2,ANT,170,CO-ANT,COL,CO,"Tamesis, Antioquia, Colombia",-75.709801,5.6737585
COANT05790,Colombia,Antioquia,Taraza,,Municipality,2,ANT,170,CO-ANT,COL,CO,"Taraza, Antioquia, Colombia",-75.401894,7.4888759
COANT05792,Colombia,Antioquia,Tarso,,Municipality,2,ANT,170,CO-ANT,COL,CO,"Tarso, Antioquia, Colombia",-75.828712,5.8710647
COANT05809,Colombia,Antioquia,Titiribi,,Municipality,2,ANT,170,CO-ANT,COL,CO,"Titiribi, Antioquia, Colombia",-75.79966,6.0583501
COANT05819,Colombia,Antioquia,Toledo,,Municipality,2,ANT,170,CO-ANT,COL,CO,"Toledo, Antioquia, Colombia",-75.713631,7.016397
COANT05837,Colombia,Antioquia,Turbo,,Municipality,2,ANT,170,CO-ANT,COL,CO,"Turbo, Antioquia, Colombia",-76.723892,7.9980621
COANT05842,Colombia,Antioquia,Uramita,,Municipality,2,ANT,170,CO-ANT,COL,CO,"Uramita, Antioquia, Colombia",-76.133186,6.9139171
COANT05847,Colombia,Antioquia,Urrao,,Municipality,2,ANT,170,CO-ANT,COL,CO,"Urrao, Antioquia, Colombia",-76.259064,6.3353415
COANT05854,Colombia,Antioquia,Valdivia,,Municipality,2,ANT,170,CO-ANT,COL,CO,"Valdivia, Antioquia, Colombia",-75.400948,7.2654042
COANT05856,Colombia,Antioquia,Valparaiso,,Municipality,2,ANT,170,CO-ANT,COL,CO,"Valparaiso, Antioquia, Colombia",-75.630836,5.651938
COANT05858,Colombia,Antioquia,Vegachi,,Municipality,2,ANT,170,CO-ANT,COL,CO,"Vegachi, Antioquia, Colombia",-74.754028,6.836535
COANT05861,Colombia,Antioquia,Venecia,,Municipality,2,ANT,170,CO-ANT,COL,CO,"Venecia, Antioquia, Colombia",-75.777222,5.9565763
COANT05873,Colombia,Antioquia,Vigia Del Fuerte,,Municipality,2,ANT,170,CO-ANT,COL,CO,"Vigia Del Fuerte, Antioquia, Colombia",-76.695045,6.4533515
COANT05885,Colombia,Antioquia,Yali,,Municipality,2,ANT,170,CO-ANT,COL,CO,"Yali, Antioquia, Colombia",-74.755653,6.7168708
COANT05887,Colombia,Antioquia,Yarumal,,Municipality,2,ANT,170,CO-ANT,COL,CO,"Yarumal, Antioquia, Colombia",-75.454399,6.988131
COANT05890,Colombia,Antioquia,Yolombo,,Municipality,2,ANT,170,CO-ANT,COL,CO,"Yolombo, Antioquia, Colombia",-74.922752,6.6453257
COANT05893,Colombia,Antioquia,Yondo,,Municipality,2,ANT,170,CO-ANT,COL,CO,"Yondo, Antioquia, Colombia",-74.158241,6.9251595
COANT05895,Colombia,Antioquia,Zaragoza,,Municipality,2,ANT,170,CO-ANT,COL,CO,"Zaragoza, Antioquia, Colombia",-74.858482,7.4740038
COATL08001,Colombia,Atlantico,Barranquilla,,Municipality,2,ATL,170,CO-ATL,COL,CO,"Barranquilla, Atlantico, Colombia",-74.827713,10.981521
COATL08078,Colombia,Atlantico,Baranoa,,Municipality,2,ATL,170,CO-ATL,COL,CO,"Baranoa, Atlantico, Colombia",-74.922195,10.793293
COATL08137,Colombia,Atlantico,Campo De La Cruz,,Municipality,2,ATL,170,CO-ATL,COL,CO,"Campo De La Cruz, Atlantico, Colombia",-74.87841,10.402621
COATL08141,Colombia,Atlantico,Candelaria,,Municipality,2,ATL,170,CO-ATL,COL,CO,"Candelaria, Atlantico, Colombia",-74.877563,10.48902
COATL08296,Colombia,Atlantico,Galapa,,Municipality,2,ATL,170,CO-ATL,COL,CO,"Galapa, Atlantico, Colombia",-74.887085,10.89772
COATL08372,Colombia,Atlantico,Juan De Acosta,,Municipality,2,ATL,170,CO-ATL,COL,CO,"Juan De Acosta, Atlantico, Colombia",-75.078423,10.823065
COATL08421,Colombia,Atlantico,Luruaco,,Municipality,2,ATL,170,CO-ATL,COL,CO,"Luruaco, Atlantico, Colombia",-75.15403,10.635031
COATL08433,Colombia,Atlantico,Malambo,,Municipality,2,ATL,170,CO-ATL,COL,CO,"Malambo, Atlantico, Colombia",-74.806175,10.848289
COATL08436,Colombia,Atlantico,Manati,,Municipality,2,ATL,170,CO-ATL,COL,CO,"Manati, Atlantico, Colombia",-74.984772,10.454145
COATL08520,Colombia,Atlantico,Palmar De Varela,,Municipality,2,ATL,170,CO-ATL,COL,CO,"Palmar De Varela, Atlantico, Colombia",-74.770149,10.694812
COATL08549,Colombia,Atlantico,Piojo,,Municipality,2,ATL,170,CO-ATL,COL,CO,"Piojo, Atlantico, Colombia",-75.143661,10.740789
COATL08558,Colombia,Atlantico,Polonuevo,,Municipality,2,ATL,170,CO-ATL,COL,CO,"Polonuevo, Atlantico, Colombia",-74.854149,10.767402
COATL08560,Colombia,Atlantico,Ponedera,,Municipality,2,ATL,170,CO-ATL,COL,CO,"Ponedera, Atlantico, Colombia",-74.79847,10.594651
COATL08573,Colombia,Atlantico,Puerto Colombia,,Municipality,2,ATL,170,CO-ATL,COL,CO,"Puerto Colombia, Atlantico, Colombia",-74.907402,11.004422
COATL08606,Colombia,Atlantico,Repelon,,Municipality,2,ATL,170,CO-ATL,COL,CO,"Repelon, Atlantico, Colombia",-75.12188,10.50757
COATL08634,Colombia,Atlantico,Sabanagrande,,Municipality,2,ATL,170,CO-ATL,COL,CO,"Sabanagrande, Atlantico, Colombia",-74.768799,10.79894
COATL08638,Colombia,Atlantico,Sabanalarga,,Municipality,2,ATL,170,CO-ATL,COL,CO,"Sabanalarga, Atlantico, Colombia",-74.955109,10.622508
COATL08675,Colombia,Atlantico,Santa Lucia,,Municipality,2,ATL,170,CO-ATL,COL,CO,"Santa Lucia, Atlantico, Colombia",-74.965408,10.353642
COATL08685,Colombia,Atlantico,Santo Tomas,,Municipality,2,ATL,170,CO-ATL,COL,CO,"Santo Tomas, Atlantico, Colombia",-74.794792,10.744048
COATL08758,Colombia,Atlantico,Soledad,,Municipality,2,ATL,170,CO-ATL,COL,CO,"Soledad, Atlantico, Colombia",-74.778427,10.906906
COATL08770,Colombia,Atlantico,Suan,,Municipality,2,ATL,170,CO-ATL,COL,CO,"Suan, Atlantico, Colombia",-74.907135,10.31085
COATL08832,Colombia,Atlantico,Tubara,,Municipality,2,ATL,170,CO-ATL,COL,CO,"Tubara, Atlantico, Colombia",-74.98423,10.907219
COATL08849,Colombia,Atlantico,Usiacuri,,Municipality,2,ATL,170,CO-ATL,COL,CO,"Usiacuri, Atlantico, Colombia",-74.982674,10.740522
CODC11001,Colombia,"Bogota, D.C.","Bogota, D.C.",,Municipality,2,DC,170,CO-DC,COL,CO,"Bogota, D.C., Bogota, D.C., Colombia",-74.181076,4.3161077
COBOL13001,Colombia,Bolivar,Cartagena De Indias,,Municipality,2,BOL,170,CO-BOL,COL,CO,"Cartagena De Indias, Bolivar, Colombia",-75.469902,10.449189
COBOL13006,Colombia,Bolivar,Achi,,Municipality,2,BOL,170,CO-BOL,COL,CO,"Achi, Bolivar, Colombia",-74.478058,8.6229429
COBOL13030,Colombia,Bolivar,Altos Del Rosario,,Municipality,2,BOL,170,CO-BOL,COL,CO,"Altos Del Rosario, Bolivar, Colombia",-74.19516,8.7574692
COBOL13042,Colombia,Bolivar,Arenal,,Municipality,2,BOL,170,CO-BOL,COL,CO,"Arenal, Bolivar, Colombia",-74.106956,8.3410177
COBOL13052,Colombia,Bolivar,Arjona,,Municipality,2,BOL,170,CO-BOL,COL,CO,"Arjona, Bolivar, Colombia",-75.371216,10.164221
COBOL13062,Colombia,Bolivar,Arroyohondo,,Municipality,2,BOL,170,CO-BOL,COL,CO,"Arroyohondo, Bolivar, Colombia",-75.026901,10.241718
COBOL13074,Colombia,Bolivar,Barranco De Loba,,Municipality,2,BOL,170,CO-BOL,COL,CO,"Barranco De Loba, Bolivar, Colombia",-74.162712,8.8361874
COBOL13140,Colombia,Bolivar,Calamar,,Municipality,2,BOL,170,CO-BOL,COL,CO,"Calamar, Bolivar, Colombia",-75.001198,10.218828
COBOL13160,Colombia,Bolivar,Cantagallo,,Municipality,2,BOL,170,CO-BOL,COL,CO,"Cantagallo, Bolivar, Colombia",-74.100143,7.2392292
COBOL13188,Colombia,Bolivar,Cicuco,,Municipality,2,BOL,170,CO-BOL,COL,CO,"Cicuco, Bolivar, Colombia",-74.688408,9.2352686
COBOL13212,Colombia,Bolivar,Cordoba,,Municipality,2,BOL,170,CO-BOL,COL,CO,"Cordoba, Bolivar, Colombia",-74.894455,9.5400476
COBOL13222,Colombia,Bolivar,Clemencia,,Municipality,2,BOL,170,CO-BOL,COL,CO,"Clemencia, Bolivar, Colombia",-75.314468,10.556637
COBOL13244,Colombia,Bolivar,El Carmen De Bolivar,,Municipality,2,BOL,170,CO-BOL,COL,CO,"El Carmen De Bolivar, Bolivar, Colombia",-75.157936,9.6998196
COBOL13248,Colombia,Bolivar,El Guamo,,Municipality,2,BOL,170,CO-BOL,COL,CO,"El Guamo, Bolivar, Colombia",-74.928108,10.034837
COBOL13268,Colombia,Bolivar,El Penon,,Municipality,2,BOL,170,CO-BOL,COL,CO,"El Penon, Bolivar, Colombia",-73.9123,8.8648186
COBOL13300,Colombia,Bolivar,Hatillo De Loba,,Municipality,2,BOL,170,CO-BOL,COL,CO,"Hatillo De Loba, Bolivar, Colombia",-74.147072,8.9838285
COBOL13430,Colombia,Bolivar,Magangue,,Municipality,2,BOL,170,CO-BOL,COL,CO,"Magangue, Bolivar, Colombia",-74.747292,9.1695118
COBOL13433,Colombia,Bolivar,Mahates,,Municipality,2,BOL,170,CO-BOL,COL,CO,"Mahates, Bolivar, Colombia",-75.179779,10.178214
COBOL13440,Colombia,Bolivar,Margarita,,Municipality,2,BOL,170,CO-BOL,COL,CO,"Margarita, Bolivar, Colombia",-74.225845,9.0546017
COBOL13442,Colombia,Bolivar,Maria La Baja,,Municipality,2,BOL,170,CO-BOL,COL,CO,"Maria La Baja, Bolivar, Colombia",-75.343803,9.976017
COBOL13458,Colombia,Bolivar,Montecristo,,Municipality,2,BOL,170,CO-BOL,COL,CO,"Montecristo, Bolivar, Colombia",-74.463432,8.0171003
COBOL13468,Colombia,Bolivar,Mompos,,Municipality,2,BOL,170,CO-BOL,COL,CO,"Mompos, Bolivar, Colombia",-74.545197,9.1425123
COBOL13473,Colombia,Bolivar,Morales,,Municipality,2,BOL,170,CO-BOL,COL,CO,"Morales, Bolivar, Colombia",-73.971344,8.2537003
COBOL13490,Colombia,Bolivar,Norosi,,Municipality,2,BOL,170,CO-BOL,COL,CO,"Norosi, Bolivar, Colombia",-74.115891,8.506135
COBOL13549,Colombia,Bolivar,Pinillos,,Municipality,2,BOL,170,CO-BOL,COL,CO,"Pinillos, Bolivar, Colombia",-74.38588,8.8715897
COBOL13580,Colombia,Bolivar,Regidor,,Municipality,2,BOL,170,CO-BOL,COL,CO,"Regidor, Bolivar, Colombia",-73.851181,8.7220182
COBOL13600,Colombia,Bolivar,Rio Viejo,,Municipality,2,BOL,170,CO-BOL,COL,CO,"Rio Viejo, Bolivar, Colombia",-73.997032,8.4930229
COBOL13620,Colombia,Bolivar,San Cristobal,,Municipality,2,BOL,170,CO-BOL,COL,CO,"San Cristobal, Bolivar, Colombia",-75.073341,10.36972
COBOL13647,Colombia,Bolivar,San Estanislao,,Municipality,2,BOL,170,CO-BOL,COL,CO,"San Estanislao, Bolivar, Colombia",-75.205238,10.364682
COBOL13650,Colombia,Bolivar,San Fernando,,Municipality,2,BOL,170,CO-BOL,COL,CO,"San Fernando, Bolivar, Colombia",-74.358704,9.0912609
COBOL13654,Colombia,Bolivar,San Jacinto,,Municipality,2,BOL,170,CO-BOL,COL,CO,"San Jacinto, Bolivar, Colombia",-75.106094,9.8353624
COBOL13655,Colombia,Bolivar,San Jacinto Del Cauca,,Municipality,2,BOL,170,CO-BOL,COL,CO,"San Jacinto Del Cauca, Bolivar, Colombia",-74.668404,8.2375107
COBOL13657,Colombia,Bolivar,San Juan Nepomuceno,,Municipality,2,BOL,170,CO-BOL,COL,CO,"San Juan Nepomuceno, Bolivar, Colombia",-75.06572,9.9679575
COBOL13667,Colombia,Bolivar,San Martin De Loba,,Municipality,2,BOL,170,CO-BOL,COL,CO,"San Martin De Loba, Bolivar, Colombia",-74.01033,8.7876921
COBOL13670,Colombia,Bolivar,San Pablo,,Municipality,2,BOL,170,CO-BOL,COL,CO,"San Pablo, Bolivar, Colombia",-74.135666,7.4223661
COBOL13673,Colombia,Bolivar,Santa Catalina,,Municipality,2,BOL,170,CO-BOL,COL,CO,"Santa Catalina, Bolivar, Colombia",-75.265488,10.649813
COBOL13683,Colombia,Bolivar,Santa Rosa,,Municipality,2,BOL,170,CO-BOL,COL,CO,"Santa Rosa, Bolivar, Colombia",-75.36116,10.469207
COBOL13688,Colombia,Bolivar,Santa Rosa Del Sur,,Municipality,2,BOL,170,CO-BOL,COL,CO,"Santa Rosa Del Sur, Bolivar, Colombia",-74.262726,7.7725191
COBOL13744,Colombia,Bolivar,Simiti,,Municipality,2,BOL,170,CO-BOL,COL,CO,"Simiti, Bolivar, Colombia",-73.983719,7.8513155
COBOL13760,Colombia,Bolivar,Soplaviento,,Municipality,2,BOL,170,CO-BOL,COL,CO,"Soplaviento, Bolivar, Colombia",-75.116989,10.33209
COBOL13780,Colombia,Bolivar,Talaigua Nuevo,,Municipality,2,BOL,170,CO-BOL,COL,CO,"Talaigua Nuevo, Bolivar, Colombia",-74.640099,9.313447
COBOL13810,Colombia,Bolivar,Tiquisio,,Municipality,2,BOL,170,CO-BOL,COL,CO,"Tiquisio, Bolivar, Colombia",-74.296761,8.4923449
COBOL13836,Colombia,Bolivar,Turbaco,,Municipality,2,BOL,170,CO-BOL,COL,CO,"Turbaco, Bolivar, Colombia",-75.379715,10.353107
COBOL13838,Colombia,Bolivar,Turbana,,Municipality,2,BOL,170,CO-BOL,COL,CO,"Turbana, Bolivar, Colombia",-75.470375,10.216046
COBOL13873,Colombia,Bolivar,Villanueva,,Municipality,2,BOL,170,CO-BOL,COL,CO,"Villanueva, Bolivar, Colombia",-75.267365,10.444913
COBOL13894,Colombia,Bolivar,Zambrano,,Municipality,2,BOL,170,CO-BOL,COL,CO,"Zambrano, Bolivar, Colombia",-74.880669,9.7451468
COBOY15001,Colombia,Boyaca,Tunja,,Municipality,2,BOY,170,CO-BOY,COL,CO,"Tunja, Boyaca, Colombia",-73.378021,5.5184727
COBOY15022,Colombia,Boyaca,Almeida,,Municipality,2,BOY,170,CO-BOY,COL,CO,"Almeida, Boyaca, Colombia",-73.388138,4.9548249
COBOY15047,Colombia,Boyaca,Aquitania,,Municipality,2,BOY,170,CO-BOY,COL,CO,"Aquitania, Boyaca, Colombia",-72.871498,5.4374166
COBOY15051,Colombia,Boyaca,Arcabuco,,Municipality,2,BOY,170,CO-BOY,COL,CO,"Arcabuco, Boyaca, Colombia",-73.438881,5.7495651
COBOY15087,Colombia,Boyaca,Belen,,Municipality,2,BOY,170,CO-BOY,COL,CO,"Belen, Boyaca, Colombia",-72.8937,6.0050592
COBOY15090,Colombia,Boyaca,Berbeo,,Municipality,2,BOY,170,CO-BOY,COL,CO,"Berbeo, Boyaca, Colombia",-73.101173,5.2320585
COBOY15092,Colombia,Boyaca,Beteitiva,,Municipality,2,BOY,170,CO-BOY,COL,CO,"Beteitiva, Boyaca, Colombia",-72.848579,5.9208589
COBOY15097,Colombia,Boyaca,Boavita,,Municipality,2,BOY,170,CO-BOY,COL,CO,"Boavita, Boyaca, Colombia",-72.620209,6.3375158
COBOY15104,Colombia,Boyaca,Boyaca,,Municipality,2,BOY,170,CO-BOY,COL,CO,"Boyaca, Boyaca, Colombia",-73.381371,5.4398561
COBOY15106,Colombia,Boyaca,Briceno,,Municipality,2,BOY,170,CO-BOY,COL,CO,"Briceno, Boyaca, Colombia",-73.909325,5.6755099
COBOY15109,Colombia,Boyaca,Buenavista,,Municipality,2,BOY,170,CO-BOY,COL,CO,"Buenavista, Boyaca, Colombia",-73.950661,5.4893994
COBOY15114,Colombia,Boyaca,Busbanza,,Municipality,2,BOY,170,CO-BOY,COL,CO,"Busbanza, Boyaca, Colombia",-72.875748,5.8434839
COBOY15131,Colombia,Boyaca,Caldas,,Municipality,2,BOY,170,CO-BOY,COL,CO,"Caldas, Boyaca, Colombia",-73.880577,5.5759907
COBOY15135,Colombia,Boyaca,Campohermoso,,Municipality,2,BOY,170,CO-BOY,COL,CO,"Campohermoso, Boyaca, Colombia",-73.144669,5.0068626
COBOY15162,Colombia,Boyaca,Cerinza,,Municipality,2,BOY,170,CO-BOY,COL,CO,"Cerinza, Boyaca, Colombia",-72.96447,5.9620137
COBOY15172,Colombia,Boyaca,Chinavita,,Municipality,2,BOY,170,CO-BOY,COL,CO,"Chinavita, Boyaca, Colombia",-73.340477,5.2029715
COBOY15176,Colombia,Boyaca,Chiquinquira,,Municipality,2,BOY,170,CO-BOY,COL,CO,"Chiquinquira, Boyaca, Colombia",-73.804245,5.622488
COBOY15180,Colombia,Boyaca,Chiscas,,Municipality,2,BOY,170,CO-BOY,COL,CO,"Chiscas, Boyaca, Colombia",-72.417953,6.6891179
COBOY15183,Colombia,Boyaca,Chita,,Municipality,2,BOY,170,CO-BOY,COL,CO,"Chita, Boyaca, Colombia",-72.439034,6.0914683
COBOY15185,Colombia,Boyaca,Chitaraque,,Municipality,2,BOY,170,CO-BOY,COL,CO,"Chitaraque, Boyaca, Colombia",-73.425827,5.9843946
COBOY15187,Colombia,Boyaca,Chivata,,Municipality,2,BOY,170,CO-BOY,COL,CO,"Chivata, Boyaca, Colombia",-73.263313,5.5638809
COBOY15189,Colombia,Boyaca,Cienega,,Municipality,2,BOY,170,CO-BOY,COL,CO,"Cienega, Boyaca, Colombia",-73.282059,5.3930597
COBOY15204,Colombia,Boyaca,Combita,,Municipality,2,BOY,170,CO-BOY,COL,CO,"Combita, Boyaca, Colombia",-73.329292,5.6876469
COBOY15212,Colombia,Boyaca,Coper,,Municipality,2,BOY,170,CO-BOY,COL,CO,"Coper, Boyaca, Colombia",-74.027832,5.4429836
COBOY15215,Colombia,Boyaca,Corrales,,Municipality,2,BOY,170,CO-BOY,COL,CO,"Corrales, Boyaca, Colombia",-72.845451,5.8245459
COBOY15218,Colombia,Boyaca,Covarachia,,Municipality,2,BOY,170,CO-BOY,COL,CO,"Covarachia, Boyaca, Colombia",-72.740204,6.5195217
COBOY15223,Colombia,Boyaca,Cubara,,Municipality,2,BOY,170,CO-BOY,COL,CO,"Cubara, Boyaca, Colombia",-72.181564,6.8869548
COBOY15224,Colombia,Boyaca,Cucaita,,Municipality,2,BOY,170,CO-BOY,COL,CO,"Cucaita, Boyaca, Colombia",-73.445984,5.5271039
COBOY15226,Colombia,Boyaca,Cuitiva,,Municipality,2,BOY,170,CO-BOY,COL,CO,"Cuitiva, Boyaca, Colombia",-72.939537,5.5877547
COBOY15232,Colombia,Boyaca,Chiquiza,,Municipality,2,BOY,170,CO-BOY,COL,CO,"Chiquiza, Boyaca, Colombia",-73.445625,5.6430755
COBOY15236,Colombia,Boyaca,Chivor,,Municipality,2,BOY,170,CO-BOY,COL,CO,"Chivor, Boyaca, Colombia",-73.361427,4.8711815
COBOY15238,Colombia,Boyaca,Duitama,,Municipality,2,BOY,170,CO-BOY,COL,CO,"Duitama, Boyaca, Colombia",-73.067093,5.8906026
COBOY15244,Colombia,Boyaca,El Cocuy,,Municipality,2,BOY,170,CO-BOY,COL,CO,"El Cocuy, Boyaca, Colombia",-72.419235,6.353363
COBOY15248,Colombia,Boyaca,El Espino,,Municipality,2,BOY,170,CO-BOY,COL,CO,"El Espino, Boyaca, Colombia",-72.480499,6.5082407
COBOY15272,Colombia,Boyaca,Firavitoba,,Municipality,2,BOY,170,CO-BOY,COL,CO,"Firavitoba, Boyaca, Colombia",-73.019836,5.6736765
COBOY15276,Colombia,Boyaca,Floresta,,Municipality,2,BOY,170,CO-BOY,COL,CO,"Floresta, Boyaca, Colombia",-72.924995,5.8589921
COBOY15293,Colombia,Boyaca,Gachantiva,,Municipality,2,BOY,170,CO-BOY,COL,CO,"Gachantiva, Boyaca, Colombia",-73.542656,5.7441058
COBOY15296,Colombia,Boyaca,Gameza,,Municipality,2,BOY,170,CO-BOY,COL,CO,"Gameza, Boyaca, Colombia",-72.735504,5.8033314
COBOY15299,Colombia,Boyaca,Garagoa,,Municipality,2,BOY,170,CO-BOY,COL,CO,"Garagoa, Boyaca, Colombia",-73.314301,5.0894666
COBOY15317,Colombia,Boyaca,Guacamayas,,Municipality,2,BOY,170,CO-BOY,COL,CO,"Guacamayas, Boyaca, Colombia",-72.51635,6.4454384
COBOY15322,Colombia,Boyaca,Guateque,,Municipality,2,BOY,170,CO-BOY,COL,CO,"Guateque, Boyaca, Colombia",-73.488121,5.0145082
COBOY15325,Colombia,Boyaca,Guayata,,Municipality,2,BOY,170,CO-BOY,COL,CO,"Guayata, Boyaca, Colombia",-73.496635,4.9314241
COBOY15332,Colombia,Boyaca,Guican De La Sierra,,Municipality,2,BOY,170,CO-BOY,COL,CO,"Guican De La Sierra, Boyaca, Colombia",-72.255997,6.5669918
COBOY15362,Colombia,Boyaca,Iza,,Municipality,2,BOY,170,CO-BOY,COL,CO,"Iza, Boyaca, Colombia",-72.969864,5.6173658
COBOY15367,Colombia,Boyaca,Jenesano,,Municipality,2,BOY,170,CO-BOY,COL,CO,"Jenesano, Boyaca, Colombia",-73.376953,5.377152
COBOY15368,Colombia,Boyaca,Jerico,,Municipality,2,BOY,170,CO-BOY,COL,CO,"Jerico, Boyaca, Colombia",-72.585808,6.1454597
COBOY15377,Colombia,Boyaca,Labranzagrande,,Municipality,2,BOY,170,CO-BOY,COL,CO,"Labranzagrande, Boyaca, Colombia",-72.590385,5.541378
COBOY15380,Colombia,Boyaca,La Capilla,,Municipality,2,BOY,170,CO-BOY,COL,CO,"La Capilla, Boyaca, Colombia",-73.459236,5.1131673
COBOY15401,Colombia,Boyaca,La Victoria,,Municipality,2,BOY,170,CO-BOY,COL,CO,"La Victoria, Boyaca, Colombia",-74.228729,5.5167241
COBOY15403,Colombia,Boyaca,La Uvita,,Municipality,2,BOY,170,CO-BOY,COL,CO,"La Uvita, Boyaca, Colombia",-72.555511,6.2651262
COBOY15407,Colombia,Boyaca,Villa De Leyva,,Municipality,2,BOY,170,CO-BOY,COL,CO,"Villa De Leyva, Boyaca, Colombia",-73.514946,5.6657624
COBOY15425,Colombia,Boyaca,Macanal,,Municipality,2,BOY,170,CO-BOY,COL,CO,"Macanal, Boyaca, Colombia",-73.294136,4.9801764
COBOY15442,Colombia,Boyaca,Maripi,,Municipality,2,BOY,170,CO-BOY,COL,CO,"Maripi, Boyaca, Colombia",-74.020035,5.5698109
COBOY15455,Colombia,Boyaca,Miraflores,,Municipality,2,BOY,170,CO-BOY,COL,CO,"Miraflores, Boyaca, Colombia",-73.17897,5.1509533
COBOY15464,Colombia,Boyaca,Mongua,,Municipality,2,BOY,170,CO-BOY,COL,CO,"Mongua, Boyaca, Colombia",-72.691582,5.7097125
COBOY15466,Colombia,Boyaca,Mongui,,Municipality,2,BOY,170,CO-BOY,COL,CO,"Mongui, Boyaca, Colombia",-72.832985,5.6973524
COBOY15469,Colombia,Boyaca,Moniquira,,Municipality,2,BOY,170,CO-BOY,COL,CO,"Moniquira, Boyaca, Colombia",-73.558525,5.8633704
COBOY15476,Colombia,Boyaca,Motavita,,Municipality,2,BOY,170,CO-BOY,COL,CO,"Motavita, Boyaca, Colombia",-73.377342,5.6061926
COBOY15480,Colombia,Boyaca,Muzo,,Municipality,2,BOY,170,CO-BOY,COL,CO,"Muzo, Boyaca, Colombia",-74.116577,5.5253463
COBOY15491,Colombia,Boyaca,Nobsa,,Municipality,2,BOY,170,CO-BOY,COL,CO,"Nobsa, Boyaca, Colombia",-72.932686,5.77876
COBOY15494,Colombia,Boyaca,Nuevo Colon,,Municipality,2,BOY,170,CO-BOY,COL,CO,"Nuevo Colon, Boyaca, Colombia",-73.44873,5.3547015
COBOY15500,Colombia,Boyaca,Oicata,,Municipality,2,BOY,170,CO-BOY,COL,CO,"Oicata, Boyaca, Colombia",-73.279922,5.6107879
COBOY15507,Colombia,Boyaca,Otanche,,Municipality,2,BOY,170,CO-BOY,COL,CO,"Otanche, Boyaca, Colombia",-74.197197,5.753788
COBOY15511,Colombia,Boyaca,Pachavita,,Municipality,2,BOY,170,CO-BOY,COL,CO,"Pachavita, Boyaca, Colombia",-73.399513,5.148324
COBOY15514,Colombia,Boyaca,Paez,,Municipality,2,BOY,170,CO-BOY,COL,CO,"Paez, Boyaca, Colombia",-73.004356,5.095211
COBOY15516,Colombia,Boyaca,Paipa,,Municipality,2,BOY,170,CO-BOY,COL,CO,"Paipa, Boyaca, Colombia",-73.137955,5.8267717
COBOY15518,Colombia,Boyaca,Pajarito,,Municipality,2,BOY,170,CO-BOY,COL,CO,"Pajarito, Boyaca, Colombia",-72.696724,5.382329
COBOY15522,Colombia,Boyaca,Panqueba,,Municipality,2,BOY,170,CO-BOY,COL,CO,"Panqueba, Boyaca, Colombia",-72.461823,6.4432998
COBOY15531,Colombia,Boyaca,Pauna,,Municipality,2,BOY,170,CO-BOY,COL,CO,"Pauna, Boyaca, Colombia",-74.005043,5.6888018
COBOY15533,Colombia,Boyaca,Paya,,Municipality,2,BOY,170,CO-BOY,COL,CO,"Paya, Boyaca, Colombia",-72.369293,5.6212425
COBOY15537,Colombia,Boyaca,Paz De Rio,,Municipality,2,BOY,170,CO-BOY,COL,CO,"Paz De Rio, Boyaca, Colombia",-72.767525,6.0286994
COBOY15542,Colombia,Boyaca,Pesca,,Municipality,2,BOY,170,CO-BOY,COL,CO,"Pesca, Boyaca, Colombia",-73.078377,5.4984832
COBOY15550,Colombia,Boyaca,Pisba,,Municipality,2,BOY,170,CO-BOY,COL,CO,"Pisba, Boyaca, Colombia",-72.445793,5.7434936
COBOY15572,Colombia,Boyaca,Puerto Boyaca,,Municipality,2,BOY,170,CO-BOY,COL,CO,"Puerto Boyaca, Boyaca, Colombia",-74.452858,5.9534669
COBOY15580,Colombia,Boyaca,Quipama,,Municipality,2,BOY,170,CO-BOY,COL,CO,"Quipama, Boyaca, Colombia",-74.217934,5.5615411
COBOY15599,Colombia,Boyaca,Ramiriqui,,Municipality,2,BOY,170,CO-BOY,COL,CO,"Ramiriqui, Boyaca, Colombia",-73.310776,5.3199339
COBOY15600,Colombia,Boyaca,Raquira,,Municipality,2,BOY,170,CO-BOY,COL,CO,"Raquira, Boyaca, Colombia",-73.628944,5.4962687
COBOY15621,Colombia,Boyaca,Rondon,,Municipality,2,BOY,170,CO-BOY,COL,CO,"Rondon, Boyaca, Colombia",-73.19651,5.3799477
COBOY15632,Colombia,Boyaca,Saboya,,Municipality,2,BOY,170,CO-BOY,COL,CO,"Saboya, Boyaca, Colombia",-73.747993,5.6999259
COBOY15638,Colombia,Boyaca,Sachica,,Municipality,2,BOY,170,CO-BOY,COL,CO,"Sachica, Boyaca, Colombia",-73.543098,5.5734649
COBOY15646,Colombia,Boyaca,Samaca,,Municipality,2,BOY,170,CO-BOY,COL,CO,"Samaca, Boyaca, Colombia",-73.521179,5.47054
COBOY15660,Colombia,Boyaca,San Eduardo,,Municipality,2,BOY,170,CO-BOY,COL,CO,"San Eduardo, Boyaca, Colombia",-73.049141,5.2346148
COBOY15664,Colombia,Boyaca,San Jose De Pare,,Municipality,2,BOY,170,CO-BOY,COL,CO,"San Jose De Pare, Boyaca, Colombia",-73.543869,5.994154
COBOY15667,Colombia,Boyaca,San Luis De Gaceno,,Municipality,2,BOY,170,CO-BOY,COL,CO,"San Luis De Gaceno, Boyaca, Colombia",-73.123779,4.8152723
COBOY15673,Colombia,Boyaca,San Mateo,,Municipality,2,BOY,170,CO-BOY,COL,CO,"San Mateo, Boyaca, Colombia",-72.559631,6.4068885
COBOY15676,Colombia,Boyaca,San Miguel De Sema,,Municipality,2,BOY,170,CO-BOY,COL,CO,"San Miguel De Sema, Boyaca, Colombia",-73.747162,5.5323267
COBOY15681,Colombia,Boyaca,San Pablo De Borbur,,Municipality,2,BOY,170,CO-BOY,COL,CO,"San Pablo De Borbur, Boyaca, Colombia",-74.114037,5.6773453
COBOY15686,Colombia,Boyaca,Santana,,Municipality,2,BOY,170,CO-BOY,COL,CO,"Santana, Boyaca, Colombia",-73.489746,6.0576148
COBOY15690,Colombia,Boyaca,Santa Maria,,Municipality,2,BOY,170,CO-BOY,COL,CO,"Santa Maria, Boyaca, Colombia",-73.253777,4.8230023
COBOY15693,Colombia,Boyaca,Santa Rosa De Viterbo,,Municipality,2,BOY,170,CO-BOY,COL,CO,"Santa Rosa De Viterbo, Boyaca, Colombia",-72.99173,5.8929505
COBOY15696,Colombia,Boyaca,Santa Sofia,,Municipality,2,BOY,170,CO-BOY,COL,CO,"Santa Sofia, Boyaca, Colombia",-73.603661,5.7316027
COBOY15720,Colombia,Boyaca,Sativanorte,,Municipality,2,BOY,170,CO-BOY,COL,CO,"Sativanorte, Boyaca, Colombia",-72.730324,6.1321177
COBOY15723,Colombia,Boyaca,Sativasur,,Municipality,2,BOY,170,CO-BOY,COL,CO,"Sativasur, Boyaca, Colombia",-72.715385,6.0706625
COBOY15740,Colombia,Boyaca,Siachoque,,Municipality,2,BOY,170,CO-BOY,COL,CO,"Siachoque, Boyaca, Colombia",-73.21682,5.4987478
COBOY15753,Colombia,Boyaca,Soata,,Municipality,2,BOY,170,CO-BOY,COL,CO,"Soata, Boyaca, Colombia",-72.696037,6.3230882
COBOY15755,Colombia,Boyaca,Socota,,Municipality,2,BOY,170,CO-BOY,COL,CO,"Socota, Boyaca, Colombia",-72.559128,5.9349203
COBOY15757,Colombia,Boyaca,Socha,,Municipality,2,BOY,170,CO-BOY,COL,CO,"Socha, Boyaca, Colombia",-72.682396,5.9604988
COBOY15759,Colombia,Boyaca,Sogamoso,,Municipality,2,BOY,170,CO-BOY,COL,CO,"Sogamoso, Boyaca, Colombia",-72.886307,5.6679559
COBOY15761,Colombia,Boyaca,Somondoco,,Municipality,2,BOY,170,CO-BOY,COL,CO,"Somondoco, Boyaca, Colombia",-73.428787,4.970974
COBOY15762,Colombia,Boyaca,Sora,,Municipality,2,BOY,170,CO-BOY,COL,CO,"Sora, Boyaca, Colombia",-73.443718,5.5805731
COBOY15763,Colombia,Boyaca,Sotaquira,,Municipality,2,BOY,170,CO-BOY,COL,CO,"Sotaquira, Boyaca, Colombia",-73.253014,5.7852755
COBOY15764,Colombia,Boyaca,Soraca,,Municipality,2,BOY,170,CO-BOY,COL,CO,"Soraca, Boyaca, Colombia",-73.319,5.4948907
COBOY15774,Colombia,Boyaca,Susacon,,Municipality,2,BOY,170,CO-BOY,COL,CO,"Susacon, Boyaca, Colombia",-72.715759,6.2152004
COBOY15776,Colombia,Boyaca,Sutamarchan,,Municipality,2,BOY,170,CO-BOY,COL,CO,"Sutamarchan, Boyaca, Colombia",-73.625984,5.6400309
COBOY15778,Colombia,Boyaca,Sutatenza,,Municipality,2,BOY,170,CO-BOY,COL,CO,"Sutatenza, Boyaca, Colombia",-73.43351,5.0268574
COBOY15790,Colombia,Boyaca,Tasco,,Municipality,2,BOY,170,CO-BOY,COL,CO,"Tasco, Boyaca, Colombia",-72.726265,5.8822942
COBOY15798,Colombia,Boyaca,Tenza,,Municipality,2,BOY,170,CO-BOY,COL,CO,"Tenza, Boyaca, Colombia",-73.424797,5.071413
COBOY15804,Colombia,Boyaca,Tibana,,Municipality,2,BOY,170,CO-BOY,COL,CO,"Tibana, Boyaca, Colombia",-73.39325,5.3011165
COBOY15806,Colombia,Boyaca,Tibasosa,,Municipality,2,BOY,170,CO-BOY,COL,CO,"Tibasosa, Boyaca, Colombia",-73.011147,5.7473292
COBOY15808,Colombia,Boyaca,Tinjaca,,Municipality,2,BOY,170,CO-BOY,COL,CO,"Tinjaca, Boyaca, Colombia",-73.676147,5.5775666
COBOY15810,Colombia,Boyaca,Tipacoque,,Municipality,2,BOY,170,CO-BOY,COL,CO,"Tipacoque, Boyaca, Colombia",-72.694633,6.4203534
COBOY15814,Colombia,Boyaca,Toca,,Municipality,2,BOY,170,CO-BOY,COL,CO,"Toca, Boyaca, Colombia",-73.160698,5.5802541
COBOY15816,Colombia,Boyaca,Togui,,Municipality,2,BOY,170,CO-BOY,COL,CO,"Togui, Boyaca, Colombia",-73.48922,5.9218302
COBOY15820,Colombia,Boyaca,Topaga,,Municipality,2,BOY,170,CO-BOY,COL,CO,"Topaga, Boyaca, Colombia",-72.836731,5.7653503
COBOY15822,Colombia,Boyaca,Tota,,Municipality,2,BOY,170,CO-BOY,COL,CO,"Tota, Boyaca, Colombia",-73.005348,5.4891949
COBOY15832,Colombia,Boyaca,Tunungua,,Municipality,2,BOY,170,CO-BOY,COL,CO,"Tunungua, Boyaca, Colombia",-73.943306,5.7203016
COBOY15835,Colombia,Boyaca,Turmeque,,Municipality,2,BOY,170,CO-BOY,COL,CO,"Turmeque, Boyaca, Colombia",-73.509087,5.3056974
COBOY15837,Colombia,Boyaca,Tuta,,Municipality,2,BOY,170,CO-BOY,COL,CO,"Tuta, Boyaca, Colombia",-73.182983,5.6721272
COBOY15839,Colombia,Boyaca,Tutaza,,Municipality,2,BOY,170,CO-BOY,COL,CO,"Tutaza, Boyaca, Colombia",-72.857079,6.078052
COBOY15842,Colombia,Boyaca,Umbita,,Municipality,2,BOY,170,CO-BOY,COL,CO,"Umbita, Boyaca, Colombia",-73.463387,5.2172413
COBOY15861,Colombia,Boyaca,Ventaquemada,,Municipality,2,BOY,170,CO-BOY,COL,CO,"Ventaquemada, Boyaca, Colombia",-73.520981,5.3833857
COBOY15879,Colombia,Boyaca,Viracacha,,Municipality,2,BOY,170,CO-BOY,COL,CO,"Viracacha, Boyaca, Colombia",-73.266273,5.4405584
COBOY15897,Colombia,Boyaca,Zetaquira,,Municipality,2,BOY,170,CO-BOY,COL,CO,"Zetaquira, Boyaca, Colombia",-73.167633,5.2856359
COCAL17001,Colombia,Caldas,Manizales,,Municipality,2,CAL,170,CO-CAL,COL,CO,"Manizales, Caldas, Colombia",-75.507278,5.0834332
COCAL17013,Colombia,Caldas,Aguadas,,Municipality,2,CAL,170,CO-CAL,COL,CO,"Aguadas, Caldas, Colombia",-75.450356,5.5967755
COCAL17042,Colombia,Caldas,Anserma,,Municipality,2,CAL,170,CO-CAL,COL,CO,"Anserma, Caldas, Colombia",-75.752892,5.2002993
COCAL17050,Colombia,Caldas,Aranzazu,,Municipality,2,CAL,170,CO-CAL,COL,CO,"Aranzazu, Caldas, Colombia",-75.473923,5.2655401
COCAL17088,Colombia,Caldas,Belalcazar,,Municipality,2,CAL,170,CO-CAL,COL,CO,"Belalcazar, Caldas, Colombia",-75.812263,4.9946771
COCAL17174,Colombia,Caldas,Chinchina,,Municipality,2,CAL,170,CO-CAL,COL,CO,"Chinchina, Caldas, Colombia",-75.667122,4.9871173
COCAL17272,Colombia,Caldas,Filadelfia,,Municipality,2,CAL,170,CO-CAL,COL,CO,"Filadelfia, Caldas, Colombia",-75.58979,5.2857437
COCAL17380,Colombia,Caldas,La Dorada,,Municipality,2,CAL,170,CO-CAL,COL,CO,"La Dorada, Caldas, Colombia",-74.712296,5.5405264
COCAL17388,Colombia,Caldas,La Merced,,Municipality,2,CAL,170,CO-CAL,COL,CO,"La Merced, Caldas, Colombia",-75.557907,5.3931856
COCAL17433,Colombia,Caldas,Manzanares,,Municipality,2,CAL,170,CO-CAL,COL,CO,"Manzanares, Caldas, Colombia",-75.152634,5.232954
COCAL17442,Colombia,Caldas,Marmato,,Municipality,2,CAL,170,CO-CAL,COL,CO,"Marmato, Caldas, Colombia",-75.602097,5.4926319
COCAL17444,Colombia,Caldas,Marquetalia,,Municipality,2,CAL,170,CO-CAL,COL,CO,"Marquetalia, Caldas, Colombia",-75.041176,5.3091426
COCAL17446,Colombia,Caldas,Marulanda,,Municipality,2,CAL,170,CO-CAL,COL,CO,"Marulanda, Caldas, Colombia",-75.283165,5.2355852
COCAL17486,Colombia,Caldas,Neira,,Municipality,2,CAL,170,CO-CAL,COL,CO,"Neira, Caldas, Colombia",-75.506927,5.1833587
COCAL17495,Colombia,Caldas,Norcasia,,Municipality,2,CAL,170,CO-CAL,COL,CO,"Norcasia, Caldas, Colombia",-74.854927,5.6380625
COCAL17513,Colombia,Caldas,Pacora,,Municipality,2,CAL,170,CO-CAL,COL,CO,"Pacora, Caldas, Colombia",-75.482452,5.5000348
COCAL17524,Colombia,Caldas,Palestina,,Municipality,2,CAL,170,CO-CAL,COL,CO,"Palestina, Caldas, Colombia",-75.661766,5.0503426
COCAL17541,Colombia,Caldas,Pensilvania,,Municipality,2,CAL,170,CO-CAL,COL,CO,"Pensilvania, Caldas, Colombia",-75.16684,5.4071879
COCAL17614,Colombia,Caldas,Riosucio,,Municipality,2,CAL,170,CO-CAL,COL,CO,"Riosucio, Caldas, Colombia",-75.752205,5.4422755
COCAL17616,Colombia,Caldas,Risaralda,,Municipality,2,CAL,170,CO-CAL,COL,CO,"Risaralda, Caldas, Colombia",-75.758797,5.1121874
COCAL17653,Colombia,Caldas,Salamina,,Municipality,2,CAL,170,CO-CAL,COL,CO,"Salamina, Caldas, Colombia",-75.409622,5.3703322
COCAL17662,Colombia,Caldas,Samana,,Municipality,2,CAL,170,CO-CAL,COL,CO,"Samana, Caldas, Colombia",-74.993683,5.5402856
COCAL17665,Colombia,Caldas,San Jose,,Municipality,2,CAL,170,CO-CAL,COL,CO,"San Jose, Caldas, Colombia",-75.813515,5.070704
COCAL17777,Colombia,Caldas,Supia,,Municipality,2,CAL,170,CO-CAL,COL,CO,"Supia, Caldas, Colombia",-75.640358,5.4529581
COCAL17867,Colombia,Caldas,Victoria,,Municipality,2,CAL,170,CO-CAL,COL,CO,"Victoria, Caldas, Colombia",-74.836227,5.4475427
COCAL17873,Colombia,Caldas,Villamaria,,Municipality,2,CAL,170,CO-CAL,COL,CO,"Villamaria, Caldas, Colombia",-75.43544,4.9402118
COCAL17877,Colombia,Caldas,Viterbo,,Municipality,2,CAL,170,CO-CAL,COL,CO,"Viterbo, Caldas, Colombia",-75.879295,5.047822
COCAQ18001,Colombia,Caqueta,Florencia,,Municipality,2,CAQ,170,CO-CAQ,COL,CO,"Florencia, Caqueta, Colombia",-75.558243,1.7491387
COCAQ18029,Colombia,Caqueta,Albania,,Municipality,2,CAQ,170,CO-CAQ,COL,CO,"Albania, Caqueta, Colombia",-75.882324,1.2278655
COCAQ18094,Colombia,Caqueta,Belen De Los Andaquies,,Municipality,2,CAQ,170,CO-CAQ,COL,CO,"Belen De Los Andaquies, Caqueta, Colombia",-75.875648,1.500923
COCAQ18150,Colombia,Caqueta,Cartagena Del Chaira,,Municipality,2,CAQ,170,CO-CAQ,COL,CO,"Cartagena Del Chaira, Caqueta, Colombia",-74.272354,.6476931
COCAQ18205,Colombia,Caqueta,Curillo,,Municipality,2,CAQ,170,CO-CAQ,COL,CO,"Curillo, Caqueta, Colombia",-75.951782,1.0596632
COCAQ18247,Colombia,Caqueta,El Doncello,,Municipality,2,CAQ,170,CO-CAQ,COL,CO,"El Doncello, Caqueta, Colombia",-75.193947,1.7913859
COCAQ18256,Colombia,Caqueta,El Paujil,,Municipality,2,CAQ,170,CO-CAQ,COL,CO,"El Paujil, Caqueta, Colombia",-75.234047,1.6177464
COCAQ18410,Colombia,Caqueta,La Montanita,,Municipality,2,CAQ,170,CO-CAQ,COL,CO,"La Montanita, Caqueta, Colombia",-75.235725,1.3028605
COCAQ18460,Colombia,Caqueta,Milan,,Municipality,2,CAQ,170,CO-CAQ,COL,CO,"Milan, Caqueta, Colombia",-75.38665,1.1466925
COCAQ18479,Colombia,Caqueta,Morelia,,Municipality,2,CAQ,170,CO-CAQ,COL,CO,"Morelia, Caqueta, Colombia",-75.673813,1.3829961
COCAQ18592,Colombia,Caqueta,Puerto Rico,,Municipality,2,CAQ,170,CO-CAQ,COL,CO,"Puerto Rico, Caqueta, Colombia",-75.07309,2.0189409
COCAQ18610,Colombia,Caqueta,San Jose Del Fragua,,Municipality,2,CAQ,170,CO-CAQ,COL,CO,"San Jose Del Fragua, Caqueta, Colombia",-76.110008,1.3047023
COCAQ18753,Colombia,Caqueta,San Vicente Del Caguan,,Municipality,2,CAQ,170,CO-CAQ,COL,CO,"San Vicente Del Caguan, Caqueta, Colombia",-74.262978,1.5678017
COCAQ18756,Colombia,Caqueta,Solano,,Municipality,2,CAQ,170,CO-CAQ,COL,CO,"Solano, Caqueta, Colombia",-73.123871,.21128085
COCAQ18785,Colombia,Caqueta,Solita,,Municipality,2,CAQ,170,CO-CAQ,COL,CO,"Solita, Caqueta, Colombia",-75.638397,.90926546
COCAQ18860,Colombia,Caqueta,Valparaiso,,Municipality,2,CAQ,170,CO-CAQ,COL,CO,"Valparaiso, Caqueta, Colombia",-75.627045,1.0612922
COCAU19001,Colombia,Cauca,Popayan,,Municipality,2,CAU,170,CO-CAU,COL,CO,"Popayan, Cauca, Colombia",-76.591942,2.4717042
COCAU19022,Colombia,Cauca,Almaguer,,Municipality,2,CAU,170,CO-CAU,COL,CO,"Almaguer, Cauca, Colombia",-76.834946,1.9124405
COCAU19050,Colombia,Cauca,Argelia,,Municipality,2,CAU,170,CO-CAU,COL,CO,"Argelia, Cauca, Colombia",-77.263145,2.3293374
COCAU19075,Colombia,Cauca,Balboa,,Municipality,2,CAU,170,CO-CAU,COL,CO,"Balboa, Cauca, Colombia",-77.208817,2.084733
COCAU19100,Colombia,Cauca,Bolivar,,Municipality,2,CAU,170,CO-CAU,COL,CO,"Bolivar, Cauca, Colombia",-76.963371,1.8539519
COCAU19110,Colombia,Cauca,Buenos Aires,,Municipality,2,CAU,170,CO-CAU,COL,CO,"Buenos Aires, Cauca, Colombia",-76.679008,3.0459177
COCAU19130,Colombia,Cauca,Cajibio,,Municipality,2,CAU,170,CO-CAU,COL,CO,"Cajibio, Cauca, Colombia",-76.701385,2.6432099
COCAU19137,Colombia,Cauca,Caldono,,Municipality,2,CAU,170,CO-CAU,COL,CO,"Caldono, Cauca, Colombia",-76.464516,2.8103282
COCAU19142,Colombia,Cauca,Caloto,,Municipality,2,CAU,170,CO-CAU,COL,CO,"Caloto, Cauca, Colombia",-76.366386,3.0459423
COCAU19212,Colombia,Cauca,Corinto,,Municipality,2,CAU,170,CO-CAU,COL,CO,"Corinto, Cauca, Colombia",-76.209648,3.1367536
COCAU19256,Colombia,Cauca,El Tambo,,Municipality,2,CAU,170,CO-CAU,COL,CO,"El Tambo, Cauca, Colombia",-77.005112,2.5344882
COCAU19290,Colombia,Cauca,Florencia,,Municipality,2,CAU,170,CO-CAU,COL,CO,"Florencia, Cauca, Colombia",-77.087357,1.6945348
COCAU19300,Colombia,Cauca,Guachene,,Municipality,2,CAU,170,CO-CAU,COL,CO,"Guachene, Cauca, Colombia",-76.392349,3.1443901
COCAU19318,Colombia,Cauca,Guapi,,Municipality,2,CAU,170,CO-CAU,COL,CO,"Guapi, Cauca, Colombia",-77.690475,2.4132669
COCAU19355,Colombia,Cauca,Inza,,Municipality,2,CAU,170,CO-CAU,COL,CO,"Inza, Cauca, Colombia",-76.137627,2.4990587
COCAU19364,Colombia,Cauca,Jambalo,,Municipality,2,CAU,170,CO-CAU,COL,CO,"Jambalo, Cauca, Colombia",-76.311249,2.8498101
COCAU19392,Colombia,Cauca,La Sierra,,Municipality,2,CAU,170,CO-CAU,COL,CO,"La Sierra, Cauca, Colombia",-76.78228,2.1874735
COCAU19397,Colombia,Cauca,La Vega,,Municipality,2,CAU,170,CO-CAU,COL,CO,"La Vega, Cauca, Colombia",-76.758804,2.0539334
COCAU19418,Colombia,Cauca,Lopez De Micay,,Municipality,2,CAU,170,CO-CAU,COL,CO,"Lopez De Micay, Cauca, Colombia",-77.218414,3.001539
COCAU19450,Colombia,Cauca,Mercaderes,,Municipality,2,CAU,170,CO-CAU,COL,CO,"Mercaderes, Cauca, Colombia",-77.180603,1.7938251
COCAU19455,Colombia,Cauca,Miranda,,Municipality,2,CAU,170,CO-CAU,COL,CO,"Miranda, Cauca, Colombia",-76.216705,3.2282352
COCAU19473,Colombia,Cauca,Morales,,Municipality,2,CAU,170,CO-CAU,COL,CO,"Morales, Cauca, Colombia",-76.750961,2.8147655
COCAU19513,Colombia,Cauca,Padilla,,Municipality,2,CAU,170,CO-CAU,COL,CO,"Padilla, Cauca, Colombia",-76.336243,3.1947305
COCAU19517,Colombia,Cauca,Paez,,Municipality,2,CAU,170,CO-CAU,COL,CO,"Paez, Cauca, Colombia",-75.993683,2.7338877
COCAU19532,Colombia,Cauca,Patia,,Municipality,2,CAU,170,CO-CAU,COL,CO,"Patia, Cauca, Colombia",-77.05793,2.1481655
COCAU19533,Colombia,Cauca,Piamonte,,Municipality,2,CAU,170,CO-CAU,COL,CO,"Piamonte, Cauca, Colombia",-76.305473,1.1523235
COCAU19548,Colombia,Cauca,Piendamo - Tunia,,Municipality,2,CAU,170,CO-CAU,COL,CO,"Piendamo - Tunia, Cauca, Colombia",-76.56472,2.7144573
COCAU19573,Colombia,Cauca,Puerto Tejada,,Municipality,2,CAU,170,CO-CAU,COL,CO,"Puerto Tejada, Cauca, Colombia",-76.418465,3.2667241
COCAU19585,Colombia,Cauca,Purace,,Municipality,2,CAU,170,CO-CAU,COL,CO,"Purace, Cauca, Colombia",-76.371155,2.281776
COCAU19622,Colombia,Cauca,Rosas,,Municipality,2,CAU,170,CO-CAU,COL,CO,"Rosas, Cauca, Colombia",-76.75293,2.2508767
COCAU19693,Colombia,Cauca,San Sebastian,,Municipality,2,CAU,170,CO-CAU,COL,CO,"San Sebastian, Cauca, Colombia",-76.716522,1.8562618
COCAU19698,Colombia,Cauca,Santander De Quilichao,,Municipality,2,CAU,170,CO-CAU,COL,CO,"Santander De Quilichao, Cauca, Colombia",-76.498734,2.9844673
COCAU19701,Colombia,Cauca,Santa Rosa,,Municipality,2,CAU,170,CO-CAU,COL,CO,"Santa Rosa, Cauca, Colombia",-76.538765,1.5200218
COCAU19743,Colombia,Cauca,Silvia,,Municipality,2,CAU,170,CO-CAU,COL,CO,"Silvia, Cauca, Colombia",-76.350571,2.6512918
COCAU19760,Colombia,Cauca,Sotara - Paispamba,,Municipality,2,CAU,170,CO-CAU,COL,CO,"Sotara - Paispamba, Cauca, Colombia",-76.611465,2.2318206
COCAU19780,Colombia,Cauca,Suarez,,Municipality,2,CAU,170,CO-CAU,COL,CO,"Suarez, Cauca, Colombia",-76.745827,2.936866
COCAU19785,Colombia,Cauca,Sucre,,Municipality,2,CAU,170,CO-CAU,COL,CO,"Sucre, Cauca, Colombia",-76.909943,2.0577352
COCAU19807,Colombia,Cauca,Timbio,,Municipality,2,CAU,170,CO-CAU,COL,CO,"Timbio, Cauca, Colombia",-76.710518,2.3696253
COCAU19809,Colombia,Cauca,Timbiqui,,Municipality,2,CAU,170,CO-CAU,COL,CO,"Timbiqui, Cauca, Colombia",-77.491318,2.699475
COCAU19821,Colombia,Cauca,Toribio,,Municipality,2,CAU,170,CO-CAU,COL,CO,"Toribio, Cauca, Colombia",-76.203316,2.9757719
COCAU19824,Colombia,Cauca,Totoro,,Municipality,2,CAU,170,CO-CAU,COL,CO,"Totoro, Cauca, Colombia",-76.390472,2.5045002
COCAU19845,Colombia,Cauca,Villa Rica,,Municipality,2,CAU,170,CO-CAU,COL,CO,"Villa Rica, Cauca, Colombia",-76.464455,3.1806273
COCES20001,Colombia,Cesar,Valledupar,,Municipality,2,CES,170,CO-CES,COL,CO,"Valledupar, Cesar, Colombia",-73.463264,10.382036
COCES20011,Colombia,Cesar,Aguachica,,Municipality,2,CES,170,CO-CES,COL,CO,"Aguachica, Cesar, Colombia",-73.622742,8.2487354
COCES20013,Colombia,Cesar,Agustin Codazzi,,Municipality,2,CES,170,CO-CES,COL,CO,"Agustin Codazzi, Cesar, Colombia",-73.223579,9.9492159
COCES20032,Colombia,Cesar,Astrea,,Municipality,2,CES,170,CO-CES,COL,CO,"Astrea, Cesar, Colombia",-73.942146,9.5107279
COCES20045,Colombia,Cesar,Becerril,,Municipality,2,CES,170,CO-CES,COL,CO,"Becerril, Cesar, Colombia",-73.252502,9.7277327
COCES20060,Colombia,Cesar,Bosconia,,Municipality,2,CES,170,CO-CES,COL,CO,"Bosconia, Cesar, Colombia",-73.866287,9.9463911
COCES20175,Colombia,Cesar,Chimichagua,,Municipality,2,CES,170,CO-CES,COL,CO,"Chimichagua, Cesar, Colombia",-73.75267,9.2187815
COCES20178,Colombia,Cesar,Chiriguana,,Municipality,2,CES,170,CO-CES,COL,CO,"Chiriguana, Cesar, Colombia",-73.547981,9.4266481
COCES20228,Colombia,Cesar,Curumani,,Municipality,2,CES,170,CO-CES,COL,CO,"Curumani, Cesar, Colombia",-73.488106,9.2387714
COCES20238,Colombia,Cesar,El Copey,,Municipality,2,CES,170,CO-CES,COL,CO,"El Copey, Cesar, Colombia",-73.912819,10.199954
COCES20250,Colombia,Cesar,El Paso,,Municipality,2,CES,170,CO-CES,COL,CO,"El Paso, Cesar, Colombia",-73.693504,9.6817799
COCES20295,Colombia,Cesar,Gamarra,,Municipality,2,CES,170,CO-CES,COL,CO,"Gamarra, Cesar, Colombia",-73.70649,8.3377266
COCES20310,Colombia,Cesar,Gonzalez,,Municipality,2,CES,170,CO-CES,COL,CO,"Gonzalez, Cesar, Colombia",-73.375374,8.4055166
COCES20383,Colombia,Cesar,La Gloria,,Municipality,2,CES,170,CO-CES,COL,CO,"La Gloria, Cesar, Colombia",-73.633095,8.6213322
COCES20400,Colombia,Cesar,La Jagua De Ibirico,,Municipality,2,CES,170,CO-CES,COL,CO,"La Jagua De Ibirico, Cesar, Colombia",-73.320686,9.5513401
COCES20443,Colombia,Cesar,Manaure Balcon Del Cesar,,Municipality,2,CES,170,CO-CES,COL,CO,"Manaure Balcon Del Cesar, Cesar, Colombia",-72.991684,10.390955
COCES20517,Colombia,Cesar,Pailitas,,Municipality,2,CES,170,CO-CES,COL,CO,"Pailitas, Cesar, Colombia",-73.572472,8.9389162
COCES20550,Colombia,Cesar,Pelaya,,Municipality,2,CES,170,CO-CES,COL,CO,"Pelaya, Cesar, Colombia",-73.632957,8.7641163
COCES20570,Colombia,Cesar,Pueblo Bello,,Municipality,2,CES,170,CO-CES,COL,CO,"Pueblo Bello, Cesar, Colombia",-73.588554,10.466962
COCES20614,Colombia,Cesar,Rio De Oro,,Municipality,2,CES,170,CO-CES,COL,CO,"Rio De Oro, Cesar, Colombia",-73.487503,8.2010698
COCES20621,Colombia,Cesar,La Paz,,Municipality,2,CES,170,CO-CES,COL,CO,"La Paz, Cesar, Colombia",-73.190758,10.164247
COCES20710,Colombia,Cesar,San Alberto,,Municipality,2,CES,170,CO-CES,COL,CO,"San Alberto, Cesar, Colombia",-73.45372,7.8143907
COCES20750,Colombia,Cesar,San Diego,,Municipality,2,CES,170,CO-CES,COL,CO,"San Diego, Cesar, Colombia",-73.287979,10.169527
COCES20770,Colombia,Cesar,San Martin,,Municipality,2,CES,170,CO-CES,COL,CO,"San Martin, Cesar, Colombia",-73.544365,7.9377885
COCES20787,Colombia,Cesar,Tamalameque,,Municipality,2,CES,170,CO-CES,COL,CO,"Tamalameque, Cesar, Colombia",-73.763397,8.9020748
COCOR23001,Colombia,Cordoba,Monteria,,Municipality,2,COR,170,CO-COR,COL,CO,"Monteria, Cordoba, Colombia",-75.950554,8.5846977
COCOR23068,Colombia,Cordoba,Ayapel,,Municipality,2,COR,170,CO-COR,COL,CO,"Ayapel, Cordoba, Colombia",-75.048683,8.265769
COCOR23079,Colombia,Cordoba,Buenavista,,Municipality,2,COR,170,CO-COR,COL,CO,"Buenavista, Cordoba, Colombia",-75.433823,8.1913977
COCOR23090,Colombia,Cordoba,Canalete,,Municipality,2,COR,170,CO-COR,COL,CO,"Canalete, Cordoba, Colombia",-76.237793,8.7240953
COCOR23162,Colombia,Cordoba,Cerete,,Municipality,2,COR,170,CO-COR,COL,CO,"Cerete, Cordoba, Colombia",-75.83461,8.8910131
COCOR23168,Colombia,Cordoba,Chima,,Municipality,2,COR,170,CO-COR,COL,CO,"Chima, Cordoba, Colombia",-75.652374,9.1102495
COCOR23182,Colombia,Cordoba,Chinu,,Municipality,2,COR,170,CO-COR,COL,CO,"Chinu, Cordoba, Colombia",-75.356674,9.0274935
COCOR23189,Colombia,Cordoba,Cienaga De Oro,,Municipality,2,COR,170,CO-COR,COL,CO,"Cienaga De Oro, Cordoba, Colombia",-75.607796,8.8418121
COCOR23300,Colombia,Cordoba,Cotorra,,Municipality,2,COR,170,CO-COR,COL,CO,"Cotorra, Cordoba, Colombia",-75.778938,9.0569525
COCOR23350,Colombia,Cordoba,La Apartada,,Municipality,2,COR,170,CO-COR,COL,CO,"La Apartada, Cordoba, Colombia",-75.288162,8.0522184
COCOR23417,Colombia,Cordoba,Lorica,,Municipality,2,COR,170,CO-COR,COL,CO,"Lorica, Cordoba, Colombia",-75.909782,9.1650352
COCOR23419,Colombia,Cordoba,Los Cordobas,,Municipality,2,COR,170,CO-COR,COL,CO,"Los Cordobas, Cordoba, Colombia",-76.29493,8.8390369
COCOR23464,Colombia,Cordoba,Momil,,Municipality,2,COR,170,CO-COR,COL,CO,"Momil, Cordoba, Colombia",-75.650909,9.2654619
COCOR23466,Colombia,Cordoba,Montelibano,,Municipality,2,COR,170,CO-COR,COL,CO,"Montelibano, Cordoba, Colombia",-75.760674,7.8863378
COCOR23500,Colombia,Cordoba,Monitos,,Municipality,2,COR,170,CO-COR,COL,CO,"Monitos, Cordoba, Colombia",-76.119316,9.1905155
COCOR23555,Colombia,Cordoba,Planeta Rica,,Municipality,2,COR,170,CO-COR,COL,CO,"Planeta Rica, Cordoba, Colombia",-75.612381,8.2902966
COCOR23570,Colombia,Cordoba,Pueblo Nuevo,,Municipality,2,COR,170,CO-COR,COL,CO,"Pueblo Nuevo, Cordoba, Colombia",-75.405159,8.4813395
COCOR23574,Colombia,Cordoba,Puerto Escondido,,Municipality,2,COR,170,CO-COR,COL,CO,"Puerto Escondido, Cordoba, Colombia",-76.194061,8.9886675
COCOR23580,Colombia,Cordoba,Puerto Libertador,,Municipality,2,COR,170,CO-COR,COL,CO,"Puerto Libertador, Cordoba, Colombia",-75.771233,7.7115159
COCOR23586,Colombia,Cordoba,Purisima De La Concepcion,,Municipality,2,COR,170,CO-COR,COL,CO,"Purisima De La Concepcion, Cordoba, Colombia",-75.721291,9.2823858
COCOR23660,Colombia,Cordoba,Sahagun,,Municipality,2,COR,170,CO-COR,COL,CO,"Sahagun, Cordoba, Colombia",-75.42926,8.7990074
COCOR23670,Colombia,Cordoba,San Andres De Sotavento,,Municipality,2,COR,170,CO-COR,COL,CO,"San Andres De Sotavento, Cordoba, Colombia",-75.52092,9.1212959
COCOR23672,Colombia,Cordoba,San Antero,,Municipality,2,COR,170,CO-COR,COL,CO,"San Antero, Cordoba, Colombia",-75.787003,9.3596678
COCOR23675,Colombia,Cordoba,San Bernardo Del Viento,,Municipality,2,COR,170,CO-COR,COL,CO,"San Bernardo Del Viento, Cordoba, Colombia",-75.976242,9.3300982
COCOR23678,Colombia,Cordoba,San Carlos,,Municipality,2,COR,170,CO-COR,COL,CO,"San Carlos, Cordoba, Colombia",-75.69252,8.7064638
COCOR23682,Colombia,Cordoba,San Jose De Ure,,Municipality,2,COR,170,CO-COR,COL,CO,"San Jose De Ure, Cordoba, Colombia",-75.567245,7.7530546
COCOR23686,Colombia,Cordoba,San Pelayo,,Municipality,2,COR,170,CO-COR,COL,CO,"San Pelayo, Cordoba, Colombia",-75.909584,8.9877777
COCOR23807,Colombia,Cordoba,Tierralta,,Municipality,2,COR,170,CO-COR,COL,CO,"Tierralta, Cordoba, Colombia",-76.168465,7.8138967
COCOR23815,Colombia,Cordoba,Tuchin,,Municipality,2,COR,170,CO-COR,COL,CO,"Tuchin, Cordoba, Colombia",-75.544106,9.2246304
COCOR23855,Colombia,Cordoba,Valencia,,Municipality,2,COR,170,CO-COR,COL,CO,"Valencia, Cordoba, Colombia",-76.221329,8.2199039
COCUN25001,Colombia,Cundinamarca,Agua De Dios,,Municipality,2,CUN,170,CO-CUN,COL,CO,"Agua De Dios, Cundinamarca, Colombia",-74.671112,4.3727446
COCUN25019,Colombia,Cundinamarca,Alban,,Municipality,2,CUN,170,CO-CUN,COL,CO,"Alban, Cundinamarca, Colombia",-74.442787,4.8911219
COCUN25035,Colombia,Cundinamarca,Anapoima,,Municipality,2,CUN,170,CO-CUN,COL,CO,"Anapoima, Cundinamarca, Colombia",-74.525696,4.5599627
COCUN25040,Colombia,Cundinamarca,Anolaima,,Municipality,2,CUN,170,CO-CUN,COL,CO,"Anolaima, Cundinamarca, Colombia",-74.461945,4.7893138
COCUN25053,Colombia,Cundinamarca,Arbelaez,,Municipality,2,CUN,170,CO-CUN,COL,CO,"Arbelaez, Cundinamarca, Colombia",-74.39576,4.2327871
COCUN25086,Colombia,Cundinamarca,Beltran,,Municipality,2,CUN,170,CO-CUN,COL,CO,"Beltran, Cundinamarca, Colombia",-74.756317,4.7196841
COCUN25095,Colombia,Cundinamarca,Bituima,,Municipality,2,CUN,170,CO-CUN,COL,CO,"Bituima, Cundinamarca, Colombia",-74.528625,4.8478212
COCUN25099,Colombia,Cundinamarca,Bojaca,,Municipality,2,CUN,170,CO-CUN,COL,CO,"Bojaca, Cundinamarca, Colombia",-74.328987,4.6916685
COCUN25120,Colombia,Cundinamarca,Cabrera,,Municipality,2,CUN,170,CO-CUN,COL,CO,"Cabrera, Cundinamarca, Colombia",-74.446159,3.9186192
COCUN25123,Colombia,Cundinamarca,Cachipay,,Municipality,2,CUN,170,CO-CUN,COL,CO,"Cachipay, Cundinamarca, Colombia",-74.459198,4.7230635
COCUN25126,Colombia,Cundinamarca,Cajica,,Municipality,2,CUN,170,CO-CUN,COL,CO,"Cajica, Cundinamarca, Colombia",-74.029854,4.9304028
COCUN25148,Colombia,Cundinamarca,Caparrapi,,Municipality,2,CUN,170,CO-CUN,COL,CO,"Caparrapi, Cundinamarca, Colombia",-74.521233,5.3815012
COCUN25151,Colombia,Cundinamarca,Caqueza,,Municipality,2,CUN,170,CO-CUN,COL,CO,"Caqueza, Cundinamarca, Colombia",-73.944824,4.4022593
COCUN25154,Colombia,Cundinamarca,Carmen De Carupa,,Municipality,2,CUN,170,CO-CUN,COL,CO,"Carmen De Carupa, Cundinamarca, Colombia",-73.926147,5.3388567
COCUN25168,Colombia,Cundinamarca,Chaguani,,Municipality,2,CUN,170,CO-CUN,COL,CO,"Chaguani, Cundinamarca, Colombia",-74.630905,4.9542518
COCUN25175,Colombia,Cundinamarca,Chia,,Municipality,2,CUN,170,CO-CUN,COL,CO,"Chia, Cundinamarca, Colombia",-74.036926,4.8654518
COCUN25178,Colombia,Cundinamarca,Chipaque,,Municipality,2,CUN,170,CO-CUN,COL,CO,"Chipaque, Cundinamarca, Colombia",-74.059471,4.4257789
COCUN25181,Colombia,Cundinamarca,Choachi,,Municipality,2,CUN,170,CO-CUN,COL,CO,"Choachi, Cundinamarca, Colombia",-73.91288,4.5829654
COCUN25183,Colombia,Cundinamarca,Choconta,,Municipality,2,CUN,170,CO-CUN,COL,CO,"Choconta, Cundinamarca, Colombia",-73.680687,5.1184192
COCUN25200,Colombia,Cundinamarca,Cogua,,Municipality,2,CUN,170,CO-CUN,COL,CO,"Cogua, Cundinamarca, Colombia",-73.975365,5.1031275
COCUN25214,Colombia,Cundinamarca,Cota,,Municipality,2,CUN,170,CO-CUN,COL,CO,"Cota, Cundinamarca, Colombia",-74.123398,4.7882719
COCUN25224,Colombia,Cundinamarca,Cucunuba,,Municipality,2,CUN,170,CO-CUN,COL,CO,"Cucunuba, Cundinamarca, Colombia",-73.780022,5.2303081
COCUN25245,Colombia,Cundinamarca,El Colegio,,Municipality,2,CUN,170,CO-CUN,COL,CO,"El Colegio, Cundinamarca, Colombia",-74.426582,4.5569472
COCUN25258,Colombia,Cundinamarca,El Penon,,Municipality,2,CUN,170,CO-CUN,COL,CO,"El Penon, Cundinamarca, Colombia",-74.308304,5.2617283
COCUN25260,Colombia,Cundinamarca,El Rosal,,Municipality,2,CUN,170,CO-CUN,COL,CO,"El Rosal, Cundinamarca, Colombia",-74.238022,4.8797231
COCUN25269,Colombia,Cundinamarca,Facatativa,,Municipality,2,CUN,170,CO-CUN,COL,CO,"Facatativa, Cundinamarca, Colombia",-74.33802,4.8340526
COCUN25279,Colombia,Cundinamarca,Fomeque,,Municipality,2,CUN,170,CO-CUN,COL,CO,"Fomeque, Cundinamarca, Colombia",-73.79705,4.5285683
COCUN25281,Colombia,Cundinamarca,Fosca,,Municipality,2,CUN,170,CO-CUN,COL,CO,"Fosca, Cundinamarca, Colombia",-73.952866,4.3162799
COCUN25286,Colombia,Cundinamarca,Funza,,Municipality,2,CUN,170,CO-CUN,COL,CO,"Funza, Cundinamarca, Colombia",-74.198662,4.7439966
COCUN25288,Colombia,Cundinamarca,Fuquene,,Municipality,2,CUN,170,CO-CUN,COL,CO,"Fuquene, Cundinamarca, Colombia",-73.770599,5.4162889
COCUN25290,Colombia,Cundinamarca,Fusagasuga,,Municipality,2,CUN,170,CO-CUN,COL,CO,"Fusagasuga, Cundinamarca, Colombia",-74.388588,4.323534
COCUN25293,Colombia,Cundinamarca,Gachala,,Municipality,2,CUN,170,CO-CUN,COL,CO,"Gachala, Cundinamarca, Colombia",-73.510551,4.6549549
COCUN25295,Colombia,Cundinamarca,Gachancipa,,Municipality,2,CUN,170,CO-CUN,COL,CO,"Gachancipa, Cundinamarca, Colombia",-73.876717,5.0100193
COCUN25297,Colombia,Cundinamarca,Gacheta,,Municipality,2,CUN,170,CO-CUN,COL,CO,"Gacheta, Cundinamarca, Colombia",-73.617729,4.8675513
COCUN25299,Colombia,Cundinamarca,Gama,,Municipality,2,CUN,170,CO-CUN,COL,CO,"Gama, Cundinamarca, Colombia",-73.600548,4.7235737
COCUN25307,Colombia,Cundinamarca,Girardot,,Municipality,2,CUN,170,CO-CUN,COL,CO,"Girardot, Cundinamarca, Colombia",-74.81144,4.3381543
COCUN25312,Colombia,Cundinamarca,Granada,,Municipality,2,CUN,170,CO-CUN,COL,CO,"Granada, Cundinamarca, Colombia",-74.33725,4.5234847
COCUN25317,Colombia,Cundinamarca,Guacheta,,Municipality,2,CUN,170,CO-CUN,COL,CO,"Guacheta, Cundinamarca, Colombia",-73.693283,5.3872914
COCUN25320,Colombia,Cundinamarca,Guaduas,,Municipality,2,CUN,170,CO-CUN,COL,CO,"Guaduas, Cundinamarca, Colombia",-74.640144,5.1735549
COCUN25322,Colombia,Cundinamarca,Guasca,,Municipality,2,CUN,170,CO-CUN,COL,CO,"Guasca, Cundinamarca, Colombia",-73.846436,4.8012767
COCUN25324,Colombia,Cundinamarca,Guataqui,,Municipality,2,CUN,170,CO-CUN,COL,CO,"Guataqui, Cundinamarca, Colombia",-74.781853,4.5123029
COCUN25326,Colombia,Cundinamarca,Guatavita,,Municipality,2,CUN,170,CO-CUN,COL,CO,"Guatavita, Cundinamarca, Colombia",-73.786484,4.9115872
COCUN25328,Colombia,Cundinamarca,Guayabal De Siquima,,Municipality,2,CUN,170,CO-CUN,COL,CO,"Guayabal De Siquima, Cundinamarca, Colombia",-74.483475,4.8793955
COCUN25335,Colombia,Cundinamarca,Guayabetal,,Municipality,2,CUN,170,CO-CUN,COL,CO,"Guayabetal, Cundinamarca, Colombia",-73.835442,4.2318759
COCUN25339,Colombia,Cundinamarca,Gutierrez,,Municipality,2,CUN,170,CO-CUN,COL,CO,"Gutierrez, Cundinamarca, Colombia",-74.024651,4.1660895
COCUN25368,Colombia,Cundinamarca,Jerusalen,,Municipality,2,CUN,170,CO-CUN,COL,CO,"Jerusalen, Cundinamarca, Colombia",-74.689156,4.5713501
COCUN25372,Colombia,Cundinamarca,Junin,,Municipality,2,CUN,170,CO-CUN,COL,CO,"Junin, Cundinamarca, Colombia",-73.692482,4.7051706
COCUN25377,Colombia,Cundinamarca,La Calera,,Municipality,2,CUN,170,CO-CUN,COL,CO,"La Calera, Cundinamarca, Colombia",-73.929398,4.7007856
COCUN25386,Colombia,Cundinamarca,La Mesa,,Municipality,2,CUN,170,CO-CUN,COL,CO,"La Mesa, Cundinamarca, Colombia",-74.473221,4.650773
COCUN25394,Colombia,Cundinamarca,La Palma,,Municipality,2,CUN,170,CO-CUN,COL,CO,"La Palma, Cundinamarca, Colombia",-74.408081,5.3334007
COCUN25398,Colombia,Cundinamarca,La Pena,,Municipality,2,CUN,170,CO-CUN,COL,CO,"La Pena, Cundinamarca, Colombia",-74.407867,5.2045989
COCUN25402,Colombia,Cundinamarca,La Vega,,Municipality,2,CUN,170,CO-CUN,COL,CO,"La Vega, Cundinamarca, Colombia",-74.339363,4.9786201
COCUN25407,Colombia,Cundinamarca,Lenguazaque,,Municipality,2,CUN,170,CO-CUN,COL,CO,"Lenguazaque, Cundinamarca, Colombia",-73.681534,5.303637
COCUN25426,Colombia,Cundinamarca,Macheta,,Municipality,2,CUN,170,CO-CUN,COL,CO,"Macheta, Cundinamarca, Colombia",-73.617386,5.040349
COCUN25430,Colombia,Cundinamarca,Madrid,,Municipality,2,CUN,170,CO-CUN,COL,CO,"Madrid, Cundinamarca, Colombia",-74.259766,4.7726774
COCUN25436,Colombia,Cundinamarca,Manta,,Municipality,2,CUN,170,CO-CUN,COL,CO,"Manta, Cundinamarca, Colombia",-73.563141,4.976881
COCUN25438,Colombia,Cundinamarca,Medina,,Municipality,2,CUN,170,CO-CUN,COL,CO,"Medina, Cundinamarca, Colombia",-73.405983,4.4844379
COCUN25473,Colombia,Cundinamarca,Mosquera,,Municipality,2,CUN,170,CO-CUN,COL,CO,"Mosquera, Cundinamarca, Colombia",-74.235733,4.6727142
COCUN25483,Colombia,Cundinamarca,Narino,,Municipality,2,CUN,170,CO-CUN,COL,CO,"Narino, Cundinamarca, Colombia",-74.805656,4.4079518
COCUN25486,Colombia,Cundinamarca,Nemocon,,Municipality,2,CUN,170,CO-CUN,COL,CO,"Nemocon, Cundinamarca, Colombia",-73.883804,5.0937052
COCUN25488,Colombia,Cundinamarca,Nilo,,Municipality,2,CUN,170,CO-CUN,COL,CO,"Nilo, Cundinamarca, Colombia",-74.614693,4.2947807
COCUN25489,Colombia,Cundinamarca,Nimaima,,Municipality,2,CUN,170,CO-CUN,COL,CO,"Nimaima, Cundinamarca, Colombia",-74.396378,5.1337485
COCUN25491,Colombia,Cundinamarca,Nocaima,,Municipality,2,CUN,170,CO-CUN,COL,CO,"Nocaima, Cundinamarca, Colombia",-74.389755,5.0661106
COCUN25506,Colombia,Cundinamarca,Venecia,,Municipality,2,CUN,170,CO-CUN,COL,CO,"Venecia, Cundinamarca, Colombia",-74.452599,4.0633421
COCUN25513,Colombia,Cundinamarca,Pacho,,Municipality,2,CUN,170,CO-CUN,COL,CO,"Pacho, Cundinamarca, Colombia",-74.163368,5.1683679
COCUN25518,Colombia,Cundinamarca,Paime,,Municipality,2,CUN,170,CO-CUN,COL,CO,"Paime, Cundinamarca, Colombia",-74.163956,5.3876472
COCUN25524,Colombia,Cundinamarca,Pandi,,Municipality,2,CUN,170,CO-CUN,COL,CO,"Pandi, Cundinamarca, Colombia",-74.471123,4.1804972
COCUN25530,Colombia,Cundinamarca,Paratebueno,,Municipality,2,CUN,170,CO-CUN,COL,CO,"Paratebueno, Cundinamarca, Colombia",-73.186989,4.4523435
COCUN25535,Colombia,Cundinamarca,Pasca,,Municipality,2,CUN,170,CO-CUN,COL,CO,"Pasca, Cundinamarca, Colombia",-74.273972,4.2937336
COCUN25572,Colombia,Cundinamarca,Puerto Salgar,,Municipality,2,CUN,170,CO-CUN,COL,CO,"Puerto Salgar, Cundinamarca, Colombia",-74.580193,5.6197529
COCUN25580,Colombia,Cundinamarca,Puli,,Municipality,2,CUN,170,CO-CUN,COL,CO,"Puli, Cundinamarca, Colombia",-74.68074,4.6913362
COCUN25592,Colombia,Cundinamarca,Quebradanegra,,Municipality,2,CUN,170,CO-CUN,COL,CO,"Quebradanegra, Cundinamarca, Colombia",-74.494514,5.0999808
COCUN25594,Colombia,Cundinamarca,Quetame,,Municipality,2,CUN,170,CO-CUN,COL,CO,"Quetame, Cundinamarca, Colombia",-73.852646,4.334589
COCUN25596,Colombia,Cundinamarca,Quipile,,Municipality,2,CUN,170,CO-CUN,COL,CO,"Quipile, Cundinamarca, Colombia",-74.554115,4.7150726
COCUN25599,Colombia,Cundinamarca,Apulo,,Municipality,2,CUN,170,CO-CUN,COL,CO,"Apulo, Cundinamarca, Colombia",-74.578423,4.5203624
COCUN25612,Colombia,Cundinamarca,Ricaurte,,Municipality,2,CUN,170,CO-CUN,COL,CO,"Ricaurte, Cundinamarca, Colombia",-74.729431,4.3073635
COCUN25645,Colombia,Cundinamarca,San Antonio Del Tequendama,,Municipality,2,CUN,170,CO-CUN,COL,CO,"San Antonio Del Tequendama, Cundinamarca, Colombia",-74.344902,4.5997415
COCUN25649,Colombia,Cundinamarca,San Bernardo,,Municipality,2,CUN,170,CO-CUN,COL,CO,"San Bernardo, Cundinamarca, Colombia",-74.353973,4.1409583
COCUN25653,Colombia,Cundinamarca,San Cayetano,,Municipality,2,CUN,170,CO-CUN,COL,CO,"San Cayetano, Cundinamarca, Colombia",-74.072319,5.3146005
COCUN25658,Colombia,Cundinamarca,San Francisco,,Municipality,2,CUN,170,CO-CUN,COL,CO,"San Francisco, Cundinamarca, Colombia",-74.272171,4.9641008
COCUN25662,Colombia,Cundinamarca,San Juan De Rioseco,,Municipality,2,CUN,170,CO-CUN,COL,CO,"San Juan De Rioseco, Cundinamarca, Colombia",-74.658493,4.8410983
COCUN25718,Colombia,Cundinamarca,Sasaima,,Municipality,2,CUN,170,CO-CUN,COL,CO,"Sasaima, Cundinamarca, Colombia",-74.412308,4.9468055
COCUN25736,Colombia,Cundinamarca,Sesquile,,Municipality,2,CUN,170,CO-CUN,COL,CO,"Sesquile, Cundinamarca, Colombia",-73.780952,5.0087719
COCUN25740,Colombia,Cundinamarca,Sibate,,Municipality,2,CUN,170,CO-CUN,COL,CO,"Sibate, Cundinamarca, Colombia",-74.26329,4.46597
COCUN25743,Colombia,Cundinamarca,Silvania,,Municipality,2,CUN,170,CO-CUN,COL,CO,"Silvania, Cundinamarca, Colombia",-74.370506,4.4369674
COCUN25745,Colombia,Cundinamarca,Simijaca,,Municipality,2,CUN,170,CO-CUN,COL,CO,"Simijaca, Cundinamarca, Colombia",-73.845192,5.5097733
COCUN25754,Colombia,Cundinamarca,Soacha,,Municipality,2,CUN,170,CO-CUN,COL,CO,"Soacha, Cundinamarca, Colombia",-74.229927,4.5375996
COCUN25758,Colombia,Cundinamarca,Sopo,,Municipality,2,CUN,170,CO-CUN,COL,CO,"Sopo, Cundinamarca, Colombia",-73.965874,4.8880601
COCUN25769,Colombia,Cundinamarca,Subachoque,,Municipality,2,CUN,170,CO-CUN,COL,CO,"Subachoque, Cundinamarca, Colombia",-74.156898,4.9703579
COCUN25772,Colombia,Cundinamarca,Suesca,,Municipality,2,CUN,170,CO-CUN,COL,CO,"Suesca, Cundinamarca, Colombia",-73.782669,5.1360803
COCUN25777,Colombia,Cundinamarca,Supata,,Municipality,2,CUN,170,CO-CUN,COL,CO,"Supata, Cundinamarca, Colombia",-74.231384,5.0616927
COCUN25779,Colombia,Cundinamarca,Susa,,Municipality,2,CUN,170,CO-CUN,COL,CO,"Susa, Cundinamarca, Colombia",-73.823929,5.4400926
COCUN25781,Colombia,Cundinamarca,Sutatausa,,Municipality,2,CUN,170,CO-CUN,COL,CO,"Sutatausa, Cundinamarca, Colombia",-73.8554,5.2429094
COCUN25785,Colombia,Cundinamarca,Tabio,,Municipality,2,CUN,170,CO-CUN,COL,CO,"Tabio, Cundinamarca, Colombia",-74.084496,4.95152
COCUN25793,Colombia,Cundinamarca,Tausa,,Municipality,2,CUN,170,CO-CUN,COL,CO,"Tausa, Cundinamarca, Colombia",-73.956314,5.1939979
COCUN25797,Colombia,Cundinamarca,Tena,,Municipality,2,CUN,170,CO-CUN,COL,CO,"Tena, Cundinamarca, Colombia",-74.391823,4.6515985
COCUN25799,Colombia,Cundinamarca,Tenjo,,Municipality,2,CUN,170,CO-CUN,COL,CO,"Tenjo, Cundinamarca, Colombia",-74.146805,4.8385487
COCUN25805,Colombia,Cundinamarca,Tibacuy,,Municipality,2,CUN,170,CO-CUN,COL,CO,"Tibacuy, Cundinamarca, Colombia",-74.486671,4.3213577
COCUN25807,Colombia,Cundinamarca,Tibirita,,Municipality,2,CUN,170,CO-CUN,COL,CO,"Tibirita, Cundinamarca, Colombia",-73.513626,5.0841026
COCUN25815,Colombia,Cundinamarca,Tocaima,,Municipality,2,CUN,170,CO-CUN,COL,CO,"Tocaima, Cundinamarca, Colombia",-74.648643,4.4520731
COCUN25817,Colombia,Cundinamarca,Tocancipa,,Municipality,2,CUN,170,CO-CUN,COL,CO,"Tocancipa, Cundinamarca, Colombia",-73.928871,4.968853
COCUN25823,Colombia,Cundinamarca,Topaipi,,Municipality,2,CUN,170,CO-CUN,COL,CO,"Topaipi, Cundinamarca, Colombia",-74.289642,5.3556886
COCUN25839,Colombia,Cundinamarca,Ubala,,Municipality,2,CUN,170,CO-CUN,COL,CO,"Ubala, Cundinamarca, Colombia",-73.408279,4.7590227
COCUN25841,Colombia,Cundinamarca,Ubaque,,Municipality,2,CUN,170,CO-CUN,COL,CO,"Ubaque, Cundinamarca, Colombia",-73.975647,4.5007544
COCUN25843,Colombia,Cundinamarca,Villa De San Diego De Ubate,,Municipality,2,CUN,170,CO-CUN,COL,CO,"Villa De San Diego De Ubate, Cundinamarca, Colombia",-73.820107,5.3160806
COCUN25845,Colombia,Cundinamarca,Une,,Municipality,2,CUN,170,CO-CUN,COL,CO,"Une, Cundinamarca, Colombia",-74.068085,4.3017335
COCUN25851,Colombia,Cundinamarca,Utica,,Municipality,2,CUN,170,CO-CUN,COL,CO,"Utica, Cundinamarca, Colombia",-74.477798,5.1927958
COCUN25862,Colombia,Cundinamarca,Vergara,,Municipality,2,CUN,170,CO-CUN,COL,CO,"Vergara, Cundinamarca, Colombia",-74.309792,5.1312675
COCUN25867,Colombia,Cundinamarca,Viani,,Municipality,2,CUN,170,CO-CUN,COL,CO,"Viani, Cundinamarca, Colombia",-74.553459,4.889163
COCUN25871,Colombia,Cundinamarca,Villagomez,,Municipality,2,CUN,170,CO-CUN,COL,CO,"Villagomez, Cundinamarca, Colombia",-74.190742,5.2706947
COCUN25873,Colombia,Cundinamarca,Villapinzon,,Municipality,2,CUN,170,CO-CUN,COL,CO,"Villapinzon, Cundinamarca, Colombia",-73.577263,5.2272987
COCUN25875,Colombia,Cundinamarca,Villeta,,Municipality,2,CUN,170,CO-CUN,COL,CO,"Villeta, Cundinamarca, Colombia",-74.487648,5.0116706
COCUN25878,Colombia,Cundinamarca,Viota,,Municipality,2,CUN,170,CO-CUN,COL,CO,"Viota, Cundinamarca, Colombia",-74.485435,4.4360542
COCUN25885,Colombia,Cundinamarca,Yacopi,,Municipality,2,CUN,170,CO-CUN,COL,CO,"Yacopi, Cundinamarca, Colombia",-74.364807,5.5919104
COCUN25898,Colombia,Cundinamarca,Zipacon,,Municipality,2,CUN,170,CO-CUN,COL,CO,"Zipacon, Cundinamarca, Colombia",-74.386734,4.7543216
COCUN25899,Colombia,Cundinamarca,Zipaquira,,Municipality,2,CUN,170,CO-CUN,COL,CO,"Zipaquira, Cundinamarca, Colombia",-74.023079,5.0461922
COCHO27001,Colombia,Choco,Quibdo,,Municipality,2,CHO,170,CO-CHO,COL,CO,"Quibdo, Choco, Colombia",-76.663681,5.9389529
